id_municipio,nome_municipio,sigla_uf,bioma_predominante,n_focos,risco_fogo_medio,frp_medio,dias_sem_chuva_medio,precipitacao_media,centroide_lat,centroide_lon
5103254,Colniza,MT,Amazônia,42141,0.8151,67.237,7.64,0.653,-9.160572,-60.207402
2106706,Mirador,MA,Cerrado,38521,0.9677,39.615,17.22,0.149,-6.426128,-44.876085
1716208,Paranã,TO,Cerrado,33659,0.8827,25.571,34.94,0.279,-12.787208,-47.907596
2101400,Balsas,MA,Cerrado,30721,0.9504,38.887,19.11,0.269,-8.260447,-46.344200
1300144,Apuí,AM,Amazônia,27220,0.5772,85.936,6.57,0.755,-7.047017,-59.616223
2100501,Alto Parnaíba,MA,Cerrado,26362,0.9898,44.195,62.71,0.132,-9.536113,-46.158567
1711902,Lagoa da Confusão,TO,Cerrado,24354,0.8794,44.336,53.09,0.183,-11.067311,-50.206263
2211209,Uruçuí,PI,Cerrado,24025,0.9633,30.357,26.13,0.176,-7.655190,-44.591364
2911105,Formosa do Rio Preto,BA,Cerrado,23656,0.9558,51.410,49.28,0.171,-11.087319,-45.662406
2928901,São Desidério,BA,Cerrado,23548,0.9341,56.471,26.58,0.125,-12.760122,-45.204995
1702406,Arraias,TO,Cerrado,22468,0.9283,28.044,25.24,0.266,-12.809580,-47.048484
1708205,Formoso do Araguaia,TO,Cerrado,21688,0.9178,47.935,45.82,0.408,-12.042052,-50.263358
2902708,Barra,BA,Cerrado,21651,0.9845,67.149,94.46,0.072,-11.318136,-43.528657
2101608,Barra do Corda,MA,Cerrado,21339,0.8136,55.863,16.64,0.097,-5.573736,-45.221779
2104800,Grajaú,MA,Cerrado,20810,0.8603,45.348,17.07,0.213,-5.881957,-45.887270
2926202,Riachão das Neves,BA,Cerrado,20067,0.9788,41.368,44.06,0.048,-11.636879,-45.014981
1100205,Porto Velho,RO,Amazônia,19757,0.7477,42.086,6.68,0.775,-9.062020,-63.836515
1302405,Lábrea,AM,Amazônia,19739,0.6802,57.934,5.48,0.541,-9.031525,-65.874834
1712702,Mateiros,TO,Cerrado,19216,0.9508,43.553,46.85,0.159,-10.603496,-46.595176
5108907,Nova Maringá,MT,Amazônia,18383,0.7817,63.714,34.33,0.187,-12.823875,-57.044834
5107859,São Félix do Araguaia,MT,Amazônia,18329,0.8279,76.807,44.59,0.700,-11.586429,-51.764436
2203909,Floriano,PI,Caatinga,18191,0.9646,48.177,18.57,0.151,-7.063007,-43.057128
5205307,Cavalcante,GO,Cerrado,17597,0.8693,19.215,9.01,0.369,-13.533395,-47.758729
1507300,São Félix do Xingu,PA,Amazônia,17548,0.6401,27.856,5.95,1.026,-6.638451,-52.216793
1500602,Altamira,PA,Amazônia,17436,0.6120,40.261,12.00,1.257,-6.966261,-53.986268
5101407,Aripuanã,MT,Amazônia,17301,0.7842,61.413,12.01,0.932,-9.800292,-60.151595
5214606,Niquelândia,GO,Cerrado,17243,0.9026,18.756,14.90,0.204,-14.600874,-48.301550
2908101,Cocos,BA,Cerrado,17181,0.9757,59.109,46.45,0.124,-14.453198,-45.111594
5003207,Corumbá,MS,Pantanal,17045,0.7791,46.344,3.78,1.309,-18.784930,-57.346404
2201150,Baixa Grande do Ribeiro,PI,Cerrado,16879,0.9475,48.493,19.26,0.311,-8.473260,-45.142555
2202307,Canto do Buriti,PI,Caatinga,16842,0.7387,83.163,26.85,0.917,-8.167939,-43.225366
2103000,Caxias,MA,Cerrado,15123,0.8746,53.495,9.66,0.317,-4.867006,-43.251379
5106240,Nova Ubiratã,MT,Amazônia,15055,0.8270,77.805,25.41,0.446,-12.877472,-54.691508
1303304,Novo Aripuanã,AM,Amazônia,14701,0.6100,61.014,5.41,0.860,-6.567019,-60.396637
1712405,Lizarda,TO,Cerrado,14665,0.9588,37.042,31.07,0.140,-9.501480,-46.954222
1717503,Pium,TO,Cerrado,14651,0.8909,48.711,24.58,0.308,-10.297269,-50.112214
5213509,Monte Alegre de Goiás,GO,Cerrado,14362,0.9827,22.395,38.66,0.061,-13.384114,-47.006602
2101806,Benedito Leite,MA,Cerrado,14171,0.9274,34.666,20.04,0.150,-7.103243,-44.537775
1717909,Ponte Alta do Tocantins,TO,Cerrado,13970,0.9290,44.742,52.53,0.231,-10.761755,-47.271615
2104081,Fernando Falcão,MA,Cerrado,13710,0.9489,33.404,16.41,0.148,-6.192391,-45.296010
2917359,Jaborandi,BA,Cerrado,13685,0.9198,55.952,39.18,0.163,-14.094755,-45.487692
5106307,Paranatinga,MT,Cerrado,13548,0.7276,50.493,16.82,0.540,-13.542324,-54.184557
1709005,Goiatins,TO,Cerrado,13456,0.9526,22.787,19.70,0.147,-8.149660,-47.437744
2928406,Santa Rita de Cássia,BA,Cerrado,13331,0.8820,51.893,57.38,0.267,-10.938776,-44.544547
2209203,Santa Filomena,PI,Cerrado,13278,0.9865,41.494,32.13,0.082,-8.962590,-45.678909
1505809,Portel,PA,Amazônia,13246,0.5013,25.589,4.00,1.141,-2.847949,-50.705810
1504703,Moju,PA,Amazônia,12517,0.4395,34.137,4.85,1.377,-2.833694,-49.230641
1505486,Pacajá,PA,Amazônia,12391,0.6288,29.447,4.01,1.192,-3.581567,-50.465973
2105922,Lagoa do Mato,MA,Cerrado,12293,0.9772,45.572,16.49,0.107,-6.102203,-43.434532
1505106,Óbidos,PA,Amazônia,12266,0.6654,24.117,6.64,0.712,0.543307,-55.637259
2208908,Ribeiro Gonçalves,PI,Cerrado,12140,0.9476,34.113,16.85,0.173,-7.880580,-45.331869
2210631,Sebastião Leal,PI,Cerrado,11823,0.9837,51.965,41.28,0.103,-7.802166,-44.104970
5103106,Cocalinho,MT,Cerrado,11796,0.8326,58.673,9.89,0.957,-13.606113,-51.079985
5105580,Marcelândia,MT,Amazônia,11736,0.4276,45.131,26.95,0.665,-10.954095,-54.015837
2109502,Riachão,MA,Cerrado,11039,0.8817,32.172,12.99,0.475,-7.664218,-46.657860
2909406,Cotegipe,BA,Cerrado,10899,0.9813,53.316,14.00,0.128,-11.645286,-44.294927
1718758,Rio Sono,TO,Cerrado,10839,0.8886,31.720,28.08,0.562,-9.655566,-47.585867
1302702,Manicoré,AM,Amazônia,10821,0.6396,57.271,6.24,0.875,-7.601461,-61.543460
2110807,São Félix de Balsas,MA,Cerrado,10609,0.9451,24.034,22.86,0.309,-7.081411,-44.878146
2102804,Carolina,MA,Cerrado,10556,0.8663,32.226,10.45,0.294,-7.467864,-47.134603
5102603,Campinápolis,MT,Cerrado,10225,0.9722,31.719,19.49,0.205,-14.387971,-53.163615
5101803,Barra do Garças,MT,Cerrado,10200,0.9113,28.065,45.33,0.288,-15.425519,-52.558437
2102309,Buriti Bravo,MA,Cerrado,10107,0.9655,48.704,15.29,0.164,-5.778020,-43.828511
2100303,Aldeias Altas,MA,Cerrado,9894,0.9157,77.362,10.79,0.305,-4.489086,-43.345695
2103505,Colinas,MA,Cerrado,9779,0.9551,34.391,14.05,0.196,-6.079850,-44.156753
2106102,Loreto,MA,Cerrado,9748,0.9174,25.195,17.43,0.181,-7.238575,-45.241763
2107803,Parnarama,MA,Cerrado,9654,0.9269,44.099,10.96,0.240,-5.676702,-43.438901
1714203,Natividade,TO,Cerrado,9240,0.8437,31.286,38.24,0.433,-11.778159,-47.599518
1503754,Jacareacanga,PA,Amazônia,9153,0.4066,62.923,3.55,1.316,-6.401866,-57.746887
1506187,Rondon do Pará,PA,Amazônia,9095,0.6545,28.960,9.54,0.587,-4.423551,-48.341637
1301704,Humaitá,AM,Amazônia,9019,0.6137,50.147,6.93,0.662,-7.483047,-62.973726
5106174,Nova Nazaré,MT,Cerrado,9007,0.9690,55.711,49.90,0.098,-14.385311,-51.996085
1505502,Paragominas,PA,Amazônia,8894,0.6661,37.031,9.65,1.027,-3.180542,-47.338108
1302900,Maués,AM,Amazônia,8857,0.4696,112.745,12.90,1.173,-6.048558,-58.528102
1300904,Canutama,AM,Amazônia,8731,0.6533,47.293,8.10,0.477,-7.816152,-63.831651
1503606,Itaituba,PA,Amazônia,8394,0.5165,47.626,5.37,1.807,-6.060312,-56.232772
5105309,Luciara,MT,Cerrado,8338,0.8805,60.385,50.12,0.369,-10.994385,-50.942774
1721109,Tocantínia,TO,Cerrado,8240,0.9475,31.699,48.22,0.161,-9.581893,-48.144641
2110906,São Francisco do Maranhão,MA,Cerrado,8107,0.9927,34.967,20.46,0.049,-6.224702,-43.147239
1506583,Santa Maria das Barreiras,PA,Amazônia,8075,0.7820,31.974,17.87,0.963,-8.727369,-50.117962
2909307,Correntina,BA,Cerrado,7683,0.9725,56.954,45.54,0.117,-13.501113,-45.438020
1200302,Feijó,AC,Amazônia,7592,0.4393,21.019,5.41,1.074,-8.527187,-70.416865
2101509,Barão de Grajaú,MA,Cerrado,7529,0.9805,23.704,21.88,0.127,-6.589546,-43.151657
1717800,Ponte Alta do Bom Jesus,TO,Cerrado,7396,0.8335,49.658,19.05,0.261,-11.961058,-46.483457
2111607,São Raimundo das Mangabeiras,MA,Cerrado,7297,0.9719,34.606,18.26,0.123,-6.947024,-45.664530
1713601,Monte do Carmo,TO,Cerrado,7197,0.6998,15.317,9.23,0.295,-10.732906,-47.968200
2903201,Barreiras,BA,Cerrado,7188,0.9283,47.311,30.50,0.247,-12.061006,-45.270438
1505064,Novo Repartimento,PA,Amazônia,7162,0.5893,29.473,2.91,3.028,-4.426845,-50.260021
5105101,Juara,MT,Amazônia,7115,0.5279,37.533,13.55,0.331,-10.913618,-57.416229
2210409,São Miguel do Tapuio,PI,Caatinga,7086,0.9918,44.385,62.69,0.025,-5.628965,-41.228142
1400407,Normandia,RR,Amazônia,7035,0.8165,13.202,4.84,0.531,3.874657,-60.049634
1505304,Oriximiná,PA,Amazônia,6991,0.5931,24.101,7.31,0.774,0.586066,-56.025420
2108009,Pastos Bons,MA,Cerrado,6932,0.9804,23.607,24.74,0.055,-6.624393,-44.153046
2106607,Matões,MA,Cerrado,6927,0.8724,51.914,9.49,0.236,-5.389812,-43.290349
1700400,Almas,TO,Cerrado,6765,0.8946,29.760,24.49,0.296,-11.470324,-47.258051
1508126,Ulianópolis,PA,Amazônia,6675,0.7358,46.089,11.82,0.645,-3.771427,-47.532995
1502764,Cumaru do Norte,PA,Amazônia,6674,0.7831,31.438,19.87,0.992,-8.463666,-51.211855
1707009,Dianópolis,TO,Cerrado,6645,0.8668,31.972,30.99,0.465,-11.705556,-46.789212
1200609,Tarauacá,AC,Amazônia,6637,0.4373,20.328,4.45,1.164,-8.209646,-71.177973
3147006,Paracatu,MG,Cerrado,6581,0.8280,27.687,21.26,0.359,-17.286924,-46.837998
2112308,Tuntum,MA,Cerrado,6490,0.9059,45.183,12.16,0.338,-5.673029,-44.762775
2208106,Pimenteiras,PI,Caatinga,6474,0.9923,49.067,50.42,0.059,-6.217426,-41.263005
2207603,Parnaguá,PI,Cerrado,6413,0.9300,51.026,39.84,0.254,-10.291133,-44.528510
1715259,Novo Jardim,TO,Cerrado,6403,0.9633,49.385,53.30,0.144,-11.782917,-46.583286
1503457,Ipixuna do Pará,PA,Amazônia,6290,0.5524,36.451,5.45,1.261,-2.715589,-47.881394
5103858,Gaúcha do Norte,MT,Amazônia,6270,0.6414,40.894,18.20,0.352,-12.899795,-53.397441
1100940,Cujubim,RO,Amazônia,6237,0.8841,61.475,6.52,0.354,-8.932747,-62.435484
2110005,Santa Luzia,MA,Amazônia,6068,0.9484,42.913,10.09,0.538,-4.330334,-45.941176
2207504,Palmeirais,PI,Caatinga,6050,0.9862,22.742,15.18,0.056,-5.890830,-42.932498
2111953,Sucupira do Riachão,MA,Cerrado,5998,0.9811,21.160,26.02,0.059,-6.383782,-43.485307
1506708,Santana do Araguaia,PA,Amazônia,5995,0.8975,36.027,31.67,0.674,-9.365650,-50.657780
2102325,Buriticupu,MA,Amazônia,5978,0.9023,58.001,13.18,0.404,-4.532489,-46.393398
1720499,São Valério,TO,Cerrado,5973,0.9330,47.893,21.29,0.089,-11.871010,-48.068790
2105476,Jenipapo dos Vieiras,MA,Cerrado,5966,0.7529,39.276,17.35,0.100,-5.445708,-45.560209
1718840,Sandolândia,TO,Cerrado,5959,0.9499,73.550,30.68,0.109,-12.378887,-49.970703
2201903,Bom Jesus,PI,Cerrado,5952,0.9735,42.778,24.99,0.123,-9.145065,-44.816770
5207907,Flores de Goiás,GO,Cerrado,5946,0.9704,25.137,25.85,0.175,-14.771582,-46.869745
1718204,Porto Nacional,TO,Cerrado,5934,0.8758,22.500,11.54,0.488,-10.623803,-48.526579
2204501,Guadalupe,PI,Cerrado,5909,0.9813,57.230,21.41,0.125,-6.871650,-43.696402
2107902,Passagem Franca,MA,Cerrado,5863,0.9440,38.747,14.72,0.146,-6.197113,-43.740768
1502707,Conceição do Araguaia,PA,Amazônia,5735,0.8019,33.800,14.67,0.713,-8.228747,-49.563067
1710508,Itacajá,TO,Cerrado,5731,0.9321,28.868,15.49,0.526,-8.557358,-47.602423
1508001,Tomé-Açu,PA,Amazônia,5692,0.4418,27.130,5.80,1.418,-2.667725,-48.248705
1502939,Dom Eliseu,PA,Amazônia,5649,0.7203,32.643,8.76,0.534,-4.186742,-47.931536
2205300,Jerumenha,PI,Cerrado,5631,0.8979,20.216,15.53,0.334,-7.111379,-43.505129
1400456,Pacaraima,RR,Amazônia,5547,0.6983,14.511,5.24,0.699,4.104673,-60.757560
2112001,Tasso Fragoso,MA,Cerrado,5539,0.9585,39.876,16.10,0.252,-8.273060,-45.847941
5107776,Santa Terezinha,MT,Amazônia,5526,0.9152,42.320,51.24,0.300,-10.269232,-50.589980
2111102,São João dos Patos,MA,Cerrado,5434,0.9343,29.633,23.41,0.176,-6.490318,-43.680392
2112209,Timon,MA,Cerrado,5398,0.9201,25.801,7.40,0.356,-5.204916,-42.995699
2103307,Codó,MA,Cerrado,5380,0.8627,40.108,9.42,0.350,-4.559891,-43.876017
1706100,Cristalândia,TO,Cerrado,5340,0.8432,44.863,26.04,0.282,-10.626375,-49.333729
5101902,Brasnorte,MT,Cerrado,5316,0.4235,50.910,9.59,2.025,-12.447979,-58.087716
5006903,Porto Murtinho,MS,Cerrado,5303,0.8774,29.397,9.71,0.479,-20.802098,-57.216018
2924405,Pilão Arcado,BA,Cerrado,5298,0.9770,47.806,45.34,0.179,-9.982945,-43.327100
3138104,Lassance,MG,Cerrado,5278,0.9100,26.437,42.38,0.175,-17.869579,-44.608804
5208004,Formosa,GO,Cerrado,5268,0.8935,23.502,34.80,0.286,-15.324222,-47.228025
1703842,Campos Lindos,TO,Cerrado,5249,0.9138,23.817,11.89,0.296,-8.220567,-46.888100
2208551,Porto Alegre do Piauí,PI,Cerrado,5204,0.9972,24.651,28.41,0.048,-6.976110,-44.046755
1300706,Boca do Acre,AM,Amazônia,5107,0.5282,29.581,6.65,1.418,-8.982839,-67.812255
5107065,Querência,MT,Amazônia,5060,0.4856,61.729,16.32,0.985,-12.265337,-52.503789
5103056,Cláudia,MT,Amazônia,5055,0.8329,38.606,21.11,0.243,-11.336270,-55.127121
1500859,Anapu,PA,Amazônia,5006,0.6663,22.196,5.17,0.987,-3.520499,-51.343851
1505031,Novo Progresso,PA,Amazônia,4960,0.5932,38.224,10.66,1.976,-8.416159,-55.158321
5107958,Tangará da Serra,MT,Cerrado,4945,0.8125,66.122,14.71,0.349,-14.340971,-58.591561
5106752,Pontes e Lacerda,MT,Amazônia,4931,0.8816,25.799,3.64,0.860,-15.827750,-59.464375
2102002,Bom Jardim,MA,Amazônia,4924,0.8948,49.732,12.10,0.820,-3.958245,-46.433461
2103208,Chapadinha,MA,Cerrado,4909,0.8759,23.351,12.55,0.267,-3.865470,-43.385431
2100956,Arame,MA,Amazônia,4897,0.8982,50.021,10.72,0.278,-5.001237,-45.937800
2208809,Regeneração,PI,Caatinga,4894,0.9943,20.578,30.79,0.038,-6.311929,-42.524540
1400209,Caracaraí,RR,Amazônia,4890,0.4916,38.446,4.95,0.555,1.425685,-60.421562
5205521,Colinas do Sul,GO,Cerrado,4888,0.9674,23.558,16.12,0.181,-13.909465,-48.121953
1100130,Machadinho D'Oeste,RO,Amazônia,4866,0.8376,50.490,8.78,0.768,-9.277071,-62.146194
2202901,Corrente,PI,Cerrado,4842,0.8175,35.413,35.42,0.513,-10.432533,-45.127611
2107308,Nova Iorque,MA,Cerrado,4753,0.9717,26.558,26.78,0.111,-6.751908,-44.048133
2920452,Mansidão,BA,Cerrado,4751,0.9875,64.714,15.94,0.223,-11.176441,-44.110084
5215603,Padre Bernardo,GO,Cerrado,4684,0.8272,22.606,14.64,0.203,-15.399910,-48.226760
1701903,Araguacema,TO,Cerrado,4666,0.9487,59.332,63.63,0.133,-9.034064,-49.589357
2207009,Oeiras,PI,Caatinga,4642,0.9760,48.833,28.50,0.075,-6.876234,-42.124152
2202026,Buriti dos Montes,PI,Caatinga,4626,0.9962,40.024,46.33,0.039,-5.220946,-41.124687
1713205,Miracema do Tocantins,TO,Cerrado,4577,0.8420,29.462,25.79,0.346,-9.628072,-48.493800
2204402,Gilbués,PI,Cerrado,4572,0.9877,26.036,51.90,0.058,-9.580455,-45.523938
5105150,Juína,MT,Cerrado,4504,0.6205,48.958,10.07,0.290,-11.834153,-58.909723
1504208,Marabá,PA,Amazônia,4475,0.8261,23.674,6.66,0.813,-5.629175,-49.644484
2206654,Morro Cabeça no Tempo,PI,Caatinga,4461,0.9792,62.845,46.07,0.138,-9.825990,-43.823334
5300108,Brasília,DF,Cerrado,4453,0.9293,23.574,29.49,0.191,-15.763917,-47.923693
2106359,Marajá do Sena,MA,Amazônia,4421,0.9525,53.467,11.08,0.120,-4.696353,-45.670146
1400704,Uiramutã,RR,Amazônia,4413,0.6426,7.503,4.79,0.896,4.506425,-60.246636
5104559,Itaúba,MT,Amazônia,4363,0.5934,75.413,13.91,0.232,-11.104260,-55.302709
2109700,Sambaíba,MA,Cerrado,4295,0.9346,30.148,14.02,0.506,-7.407885,-45.556258
2208304,Piracuruca,PI,Caatinga,4274,0.9207,30.951,19.86,0.201,-3.839525,-41.612282
5107180,Ribeirão Cascalheira,MT,Cerrado,4243,0.9150,26.752,25.31,0.365,-13.163831,-51.725566
1200401,Rio Branco,AC,Amazônia,4231,0.5302,16.630,5.78,0.981,-10.087255,-68.408321
1507805,Senador José Porfírio,PA,Amazônia,4217,0.5653,18.824,4.02,1.335,-3.527902,-51.957155
5107701,Rosário Oeste,MT,Cerrado,4201,0.9147,33.541,11.58,0.428,-15.001383,-56.373601
1705607,Conceição do Tocantins,TO,Cerrado,4179,0.6728,27.955,22.62,0.636,-12.186436,-47.275392
2902500,Baianópolis,BA,Cerrado,4178,0.9589,66.562,54.62,0.055,-12.604755,-44.512863
2103604,Coroatá,MA,Cerrado,4177,0.8828,44.449,8.81,0.490,-4.113504,-44.169844
5105507,Vila Bela da Santíssima Trindade,MT,Amazônia,4174,0.7746,31.761,7.91,0.980,-14.851335,-60.078819
1504455,Medicilândia,PA,Amazônia,4096,0.4339,17.577,3.22,1.266,-3.207004,-53.104584
2206704,Nazaré do Piauí,PI,Caatinga,4096,0.9754,36.678,23.33,0.084,-6.981892,-42.782568
2112605,Urbano Santos,MA,Cerrado,4087,0.8180,32.458,26.76,0.193,-3.266787,-43.290478
5100359,Alto Boa Vista,MT,Cerrado,4023,0.9440,44.562,43.86,0.069,-11.813481,-51.600921
5102702,Canarana,MT,Cerrado,4011,0.8085,35.690,29.60,0.319,-13.515671,-52.214887
1504802,Monte Alegre,PA,Amazônia,3984,0.3168,23.539,2.33,1.564,-1.614272,-54.211700
1500206,Acará,PA,Amazônia,3983,0.2412,14.927,3.24,2.230,-2.048003,-48.381350
5213087,Minaçu,GO,Cerrado,3964,0.8623,15.646,9.73,0.420,-13.507116,-48.321467
5108303,União do Sul,MT,Amazônia,3960,0.4314,29.059,11.42,0.640,-11.522390,-54.332969
2922250,Muquém do São Francisco,BA,Cerrado,3949,0.8449,46.262,23.88,0.522,-12.142759,-43.510442
3136306,João Pinheiro,MG,Cerrado,3919,0.8899,32.409,35.25,0.301,-17.460440,-46.026637
5108600,Vila Rica,MT,Amazônia,3911,0.8814,38.559,33.97,0.348,-9.997198,-51.535462
3171006,Vazante,MG,Cerrado,3907,0.8030,37.529,17.58,0.136,-17.765169,-46.786664
2104099,Formosa da Serra Negra,MA,Cerrado,3893,0.7960,41.133,12.38,0.680,-6.520792,-46.170191
1507953,Tailândia,PA,Amazônia,3891,0.5980,20.606,7.21,1.587,-2.937136,-48.693541
2100600,Amarante do Maranhão,MA,Cerrado,3883,0.7286,29.794,9.26,0.694,-5.350833,-46.607727
1600709,Tartarugalzinho,AP,Amazônia,3874,0.8892,26.417,16.37,0.362,1.210335,-50.949865
2108256,Pedro do Rosário,MA,Amazônia,3858,0.9611,56.101,7.00,0.314,-2.947005,-45.394146
1100338,Nova Mamoré,RO,Amazônia,3829,0.8180,36.437,6.09,0.461,-10.320799,-64.579320
2210102,São José do Peixe,PI,Caatinga,3823,0.9858,47.002,53.09,0.179,-7.617916,-42.573213
2933455,Wanderley,BA,Cerrado,3818,0.8954,47.243,14.12,0.415,-11.754509,-43.936786
1600303,Macapá,AP,Amazônia,3812,0.7773,24.915,13.43,0.800,0.443488,-50.865751
2203230,Currais,PI,Cerrado,3791,0.9638,31.051,33.48,0.199,-8.793938,-44.746442
1503093,Goianésia do Pará,PA,Amazônia,3789,0.6943,27.536,9.99,1.104,-3.894092,-48.969629
2205607,Landri Sales,PI,Cerrado,3778,0.9890,24.483,27.63,0.086,-7.297302,-43.932005
1721000,Palmas,TO,Cerrado,3719,0.8637,18.070,12.93,0.403,-10.225898,-48.173214
1501782,Breu Branco,PA,Amazônia,3718,0.6781,32.544,9.25,1.307,-3.644021,-49.321120
2110658,São Domingos do Azeitão,MA,Cerrado,3702,0.9518,23.849,26.42,0.243,-6.849104,-44.604230
2110104,Santa Quitéria do Maranhão,MA,Cerrado,3678,0.9014,23.621,21.48,0.205,-3.346141,-42.931481
1500404,Alenquer,PA,Amazônia,3649,0.1979,19.287,1.64,2.019,-1.604252,-54.896990
3104502,Arinos,MG,Cerrado,3629,0.8369,19.353,14.97,0.117,-15.715357,-46.071289
2208858,Riacho Frio,PI,Cerrado,3629,0.9639,48.420,29.23,0.132,-9.964074,-44.823319
1500503,Almeirim,PA,Amazônia,3575,0.4406,18.980,3.80,1.281,-1.120092,-53.147073
5103700,Feliz Natal,MT,Amazônia,3552,0.3777,30.607,11.42,0.602,-12.259569,-54.606193
1508050,Trairão,PA,Amazônia,3536,0.3376,30.615,2.97,2.001,-4.986141,-55.995325
5106422,Peixoto de Azevedo,MT,Amazônia,3533,0.8467,28.992,51.41,0.320,-10.234286,-53.682706
1715101,Novo Acordo,TO,Cerrado,3522,0.8782,34.324,35.06,0.339,-10.151250,-47.348272
,SANTO ANTÔNIO DO LEVERGER,MT,Pantanal,3517,0.9511,51.348,28.14,0.321,-16.388572,-55.345868
2205904,Manoel Emídio,PI,Cerrado,3494,0.9670,42.091,50.46,0.142,-8.206012,-44.016950
5218300,Posse,GO,Cerrado,3494,0.9971,57.165,64.79,0.007,-14.193381,-46.248102
1707306,Dueré,TO,Cerrado,3476,0.7918,28.236,34.82,0.669,-11.275170,-49.520976
2205102,Itaueira,PI,Caatinga,3458,0.9669,22.284,30.64,0.251,-7.496868,-43.188393
3109303,Buritis,MG,Cerrado,3424,0.9407,17.894,21.38,0.111,-15.463650,-46.531963
5217609,Planaltina,GO,Cerrado,3418,0.6941,11.558,13.82,0.217,-15.289511,-47.899605
4318200,São Francisco de Paula,RS,Mata Atlântica,3402,0.1710,7.729,3.73,0.199,-29.171733,-50.570161
1718899,Santa Rita do Tocantins,TO,Cerrado,3392,0.7944,34.799,31.75,0.454,-10.955721,-49.402060
5214903,Nova Roma,GO,Cerrado,3377,0.9555,8.619,61.92,0.183,-13.681074,-46.957775
2930154,Serra do Ramalho,BA,Cerrado,3365,0.9406,50.543,22.83,0.278,-13.432588,-43.699639
1501006,Aveiro,PA,Amazônia,3355,0.3192,25.710,3.70,0.836,-3.768312,-55.746237
1400159,Bonfim,RR,Amazônia,3333,0.7442,20.683,5.41,0.432,2.972723,-60.114793
1100809,Candeias do Jamari,RO,Amazônia,3322,0.8047,40.921,7.18,0.737,-8.811151,-63.181515
1718501,Recursolândia,TO,Cerrado,3300,0.9238,19.746,16.17,0.246,-8.690864,-47.145199
1506005,Prainha,PA,Amazônia,3294,0.3907,21.016,3.00,1.001,-1.891956,-53.727703
1200500,Sena Madureira,AC,Amazônia,3292,0.4063,12.967,3.89,1.190,-9.596691,-68.944959
2918407,Juazeiro,BA,Caatinga,3239,0.9621,43.997,16.38,0.590,-9.480474,-40.371740
2105708,Lago da Pedra,MA,Cerrado,3221,0.9264,48.342,9.13,0.154,-4.788840,-45.244994
1506807,Santarém,PA,Amazônia,3221,0.2212,17.442,2.35,1.576,-2.496365,-55.097910
2102036,Bom Jesus das Selvas,MA,Amazônia,3209,0.9076,48.123,9.91,0.371,-4.625698,-46.669772
5106208,Nova Brasilândia,MT,Cerrado,3195,0.9455,40.013,19.60,0.070,-14.917572,-54.859551
2211308,Valença do Piauí,PI,Caatinga,3166,0.9863,34.743,43.05,0.040,-6.370895,-41.795163
1720150,São Félix do Tocantins,TO,Cerrado,3148,0.9559,39.178,61.60,0.058,-10.061329,-46.683786
5220009,São João d'Aliança,GO,Cerrado,3144,0.8898,17.979,61.32,0.336,-14.476481,-47.374732
2210508,São Pedro do Piauí,PI,Caatinga,3144,0.9920,22.571,8.91,0.043,-5.794532,-42.811754
1400175,Cantá,RR,Amazônia,3142,0.5724,38.160,5.67,0.320,2.260571,-60.473838
5103379,Cotriguaçu,MT,Amazônia,3123,0.5833,33.462,8.22,0.758,-9.402359,-58.765187
2100055,Açailândia,MA,Amazônia,3103,0.8325,28.059,9.80,0.620,-4.806524,-47.314680
2304103,Crateús,CE,Caatinga,3075,0.9870,21.138,46.98,0.051,-5.231179,-40.758107
1505908,Porto de Moz,PA,Amazônia,3054,0.3377,23.777,2.84,1.250,-2.114600,-52.169784
3170404,Unaí,MG,Cerrado,3038,0.8803,15.673,23.15,0.350,-16.368383,-46.890838
1508159,Uruará,PA,Amazônia,3035,0.3496,19.395,2.75,1.303,-3.545318,-53.813321
1718881,Santa Maria do Tocantins,TO,Cerrado,3006,0.9421,30.043,20.32,0.189,-8.819809,-47.830979
2901403,Angical,BA,Cerrado,2999,0.9492,33.125,47.35,0.229,-12.014344,-44.739579
1715705,Palmeirante,TO,Cerrado,2997,0.8466,39.963,14.73,0.428,-7.910862,-48.189527
5107768,Santa Rita do Trivelato,MT,Cerrado,2985,0.3319,35.586,14.66,0.339,-14.007872,-55.149150
1502103,Cametá,PA,Amazônia,2977,0.3750,28.573,3.63,1.377,-2.377944,-49.488481
1100080,Costa Marques,RO,Amazônia,2968,0.8277,34.218,10.01,0.614,-12.353398,-63.946105
5212204,Jussara,GO,Cerrado,2957,0.5149,27.668,10.68,0.513,-15.712103,-51.142907
2207405,Palmeira do Piauí,PI,Cerrado,2956,0.9482,27.124,26.99,0.173,-8.497753,-44.620832
2201309,Barreiras do Piauí,PI,Cerrado,2945,0.9948,23.576,52.52,0.049,-9.937149,-45.709127
5100250,Alta Floresta,MT,Amazônia,2943,0.5403,58.198,15.98,0.253,-9.694116,-56.163982
2101707,Barreirinhas,MA,Cerrado,2938,0.8430,19.325,30.95,0.220,-2.979760,-42.939657
2111078,São João do Soter,MA,Cerrado,2938,0.7649,42.132,8.61,0.234,-5.043759,-43.732936
1701002,Ananás,TO,Cerrado,2908,0.4283,80.582,5.56,0.670,-6.178881,-48.064451
2210904,Socorro do Piauí,PI,Caatinga,2902,0.9923,69.565,59.38,0.024,-7.796078,-42.529814
5213053,Mimoso de Goiás,GO,Cerrado,2902,0.8970,14.062,17.78,0.100,-15.016156,-48.280919
1200104,Brasiléia,AC,Amazônia,2900,0.4512,18.505,4.10,0.624,-10.714233,-69.266011
5212709,Mambaí,GO,Cerrado,2893,0.9972,58.031,32.56,0.016,-14.363072,-46.049820
5106216,Nova Canaã do Norte,MT,Amazônia,2883,0.6055,62.569,14.15,0.406,-10.888829,-56.206725
2201705,Bertolínia,PI,Cerrado,2880,0.9862,21.821,32.00,0.174,-7.775039,-43.899929
1716604,Peixe,TO,Cerrado,2855,0.7066,35.478,23.68,0.510,-11.837262,-48.518893
1506195,Rurópolis,PA,Amazônia,2823,0.3691,19.614,3.25,1.711,-4.265946,-55.257567
5106315,Novo Santo Antônio,MT,Cerrado,2822,0.8345,46.104,28.98,0.743,-12.154844,-50.918825
5100805,Apiacás,MT,Amazônia,2822,0.5589,56.133,13.10,0.652,-9.396196,-57.679461
2203008,Cristalândia do Piauí,PI,Cerrado,2818,0.9234,36.580,40.14,0.212,-10.679726,-45.192805
2210623,Sebastião Barros,PI,Cerrado,2810,0.9204,38.825,58.78,0.386,-10.663395,-44.789612
2211001,Teresina,PI,Cerrado,2810,0.9142,19.840,11.37,0.252,-5.144968,-42.747749
5206404,Crixás,GO,Cerrado,2801,0.8870,18.383,26.05,0.274,-14.920243,-50.085728
1720655,Silvanópolis,TO,Cerrado,2790,0.8733,15.806,7.13,0.198,-11.095841,-47.875807
2200806,Antônio Almeida,PI,Cerrado,2784,0.9892,13.913,19.89,0.147,-7.228096,-44.188307
1501204,Baião,PA,Amazônia,2783,0.4793,28.853,5.21,1.084,-2.957466,-49.628170
2111904,Sucupira do Norte,MA,Cerrado,2775,0.9661,17.726,15.11,0.236,-6.529432,-44.377678
1705102,Chapada da Natividade,TO,Cerrado,2762,0.8601,26.759,23.52,0.322,-11.568507,-47.840692
2904753,Buritirama,BA,Cerrado,2754,0.9741,66.874,61.67,0.087,-10.529646,-43.589584
2108108,Paulo Ramos,MA,Amazônia,2750,0.9468,58.426,10.38,0.177,-4.532187,-45.485232
3135100,Janaúba,MG,Cerrado,2722,0.9017,37.348,17.49,0.226,-15.887550,-43.410325
1400027,Amajari,RR,Amazônia,2720,0.3876,31.089,6.07,0.538,3.843795,-61.407081
1720937,Taipas do Tocantins,TO,Cerrado,2669,0.7931,30.136,22.15,0.878,-12.074692,-47.043120
5108105,Tesouro,MT,Cerrado,2666,0.9514,44.188,58.46,0.526,-15.771125,-53.558511
1703305,Bom Jesus do Tocantins,TO,Cerrado,2666,0.8338,38.276,17.93,1.592,-9.038583,-47.831985
5106190,Nova Santa Helena,MT,Amazônia,2662,0.2358,80.474,7.12,5.516,-11.118025,-54.866882
2200509,Amarante,PI,Caatinga,2661,0.9899,20.350,24.55,0.049,-6.351719,-42.780607
1711506,Jaú do Tocantins,TO,Cerrado,2651,0.6910,14.047,7.63,0.581,-12.751362,-48.626837
1400472,Rorainópolis,RR,Amazônia,2648,0.2285,34.162,4.99,0.727,0.460638,-60.526280
2611101,Petrolina,PE,Caatinga,2632,0.9759,21.263,19.11,0.230,-9.030115,-40.572471
5103353,Confresa,MT,Amazônia,2622,0.8625,23.821,21.28,0.394,-10.467121,-51.631556
1300805,Borba,AM,Amazônia,2578,0.3909,45.889,4.06,0.960,-5.365173,-59.485951
5200175,Água Fria de Goiás,GO,Cerrado,2575,0.9601,21.866,25.82,0.092,-14.948178,-47.952699
5107305,São José do Rio Claro,MT,Cerrado,2574,0.4601,55.017,14.63,0.217,-13.368600,-56.715582
5102504,Cáceres,MT,Pantanal,2563,0.7177,35.091,4.44,0.680,-16.311882,-57.994762
2200905,Aroazes,PI,Caatinga,2562,0.9934,13.117,34.04,0.069,-6.141644,-41.773193
2110237,Santana do Maranhão,MA,Cerrado,2554,0.8629,28.502,25.49,0.323,-3.213078,-42.630923
1300300,Autazes,AM,Amazônia,2552,0.2046,27.205,2.48,0.978,-3.662696,-59.359579
1704105,Centenário,TO,Cerrado,2528,0.9271,25.986,20.68,0.332,-8.965821,-47.409851
2205250,Jardim do Mulato,PI,Caatinga,2511,0.9752,40.068,20.96,0.186,-6.143476,-42.542259
2209757,São Gonçalo do Gurguéia,PI,Cerrado,2510,0.9859,37.183,36.24,0.046,-10.125895,-45.403752
2102150,Brejo de Areia,MA,Amazônia,2493,0.9543,54.003,10.47,0.446,-4.365385,-45.651970
1400100,Boa Vista,RR,Amazônia,2491,0.7342,27.367,5.96,0.399,3.125634,-60.687238
2111805,Sítio Novo,MA,Cerrado,2484,0.7848,27.975,11.79,0.486,-6.183501,-46.608134
3126208,Formoso,MG,Cerrado,2484,0.9705,14.310,18.13,0.130,-15.243416,-46.252306
1505551,Pau D'Arco,PA,Amazônia,2483,0.9058,24.503,14.36,0.333,-7.739159,-50.230529
2105401,Itapecuru Mirim,MA,Cerrado,2481,0.9011,38.836,9.70,0.268,-3.391023,-44.266627
5106158,Nova Bandeirantes,MT,Amazônia,2467,0.7553,25.376,7.92,1.058,-9.924154,-57.922100
1701101,Aparecida do Rio Negro,TO,Cerrado,2460,0.8574,25.987,23.74,0.393,-10.024251,-48.051990
5107578,Rondolândia,MT,Amazônia,2459,0.8277,44.071,13.23,1.142,-10.639436,-60.912497
2107704,Paraibano,MA,Cerrado,2453,0.9864,36.377,28.79,0.118,-6.399011,-43.936699
1400282,Iracema,RR,Amazônia,2444,0.3965,51.462,4.09,0.205,2.143413,-61.726167
1600501,Oiapoque,AP,Amazônia,2437,0.8250,9.591,9.05,0.364,3.489416,-51.429592
5107248,Santa Carmem,MT,Amazônia,2437,0.5534,40.622,16.85,0.331,-11.893763,-54.776340
5204904,Campos Belos,GO,Cerrado,2426,0.9704,21.942,27.61,0.212,-12.990791,-46.442128
1200344,Manoel Urbano,AC,Amazônia,2421,0.4753,18.000,7.46,0.936,-8.833083,-69.362536
1200708,Xapuri,AC,Amazônia,2414,0.3732,12.576,3.88,0.835,-10.591334,-68.586810
2202251,Canavieira,PI,Cerrado,2411,0.9780,28.388,18.33,0.248,-7.496011,-43.575763
2933604,Xique-Xique,BA,Caatinga,2391,0.9002,19.362,19.99,0.998,-10.781212,-42.697107
2208874,Ribeira do Piauí,PI,Caatinga,2372,0.9885,33.929,38.63,0.031,-7.777527,-42.633459
2105427,Itinga do Maranhão,MA,Amazônia,2359,0.7929,35.838,8.83,0.696,-4.142417,-47.179613
5106778,Porto Alegre do Norte,MT,Amazônia,2348,0.6536,63.620,25.89,1.793,-10.706496,-51.833674
3108552,Brasilândia de Minas,MG,Cerrado,2334,0.9465,36.782,83.02,0.439,-16.976643,-45.846803
2112704,Vargem Grande,MA,Cerrado,2328,0.8888,44.598,10.30,0.392,-3.706557,-43.882670
1503044,Floresta do Araguaia,PA,Amazônia,2328,0.8790,42.769,16.31,0.491,-7.485703,-49.550410
5000252,Alcinópolis,MS,Cerrado,2318,0.4040,48.980,1.85,3.852,-18.164987,-53.381523
2202174,Campo Largo do Piauí,PI,Caatinga,2310,0.7768,38.634,11.84,0.289,-3.928547,-42.520893
5106802,Porto dos Gaúchos,MT,Amazônia,2295,0.5012,58.027,13.85,0.501,-11.726412,-56.972596
3135050,Jaíba,MG,Cerrado,2289,0.8966,23.700,17.85,0.273,-15.254811,-43.785171
2105351,Itaipava do Grajaú,MA,Cerrado,2280,0.8843,45.029,20.21,0.156,-5.223081,-45.700847
1100106,Guajará-Mirim,RO,Amazônia,2268,0.7379,32.508,5.79,0.615,-11.400916,-64.960965
2903904,Bom Jesus da Lapa,BA,Caatinga,2263,0.8528,24.784,21.67,0.466,-13.278833,-43.333214
1200203,Cruzeiro do Sul,AC,Amazônia,2256,0.3841,20.305,3.92,2.093,-7.905892,-72.536649
2203800,Flores do Piauí,PI,Caatinga,2255,0.9876,44.130,47.27,0.095,-7.562155,-42.749103
5106299,Paranaíta,MT,Amazônia,2253,0.7853,42.146,4.43,0.577,-9.323511,-56.910046
2100907,Araioses,MA,Cerrado,2252,0.7341,22.569,31.58,0.516,-3.005191,-41.991051
2907103,Carinhanha,BA,Cerrado,2237,0.9194,25.652,27.97,0.310,-14.009711,-43.884064
2104057,Estreito,MA,Cerrado,2226,0.7271,28.402,9.83,0.801,-6.802757,-47.216465
2312908,Sobral,CE,Caatinga,2222,0.9871,17.218,66.62,0.086,-3.775698,-40.358028
2206001,Marcos Parente,PI,Cerrado,2222,0.9906,19.269,29.69,0.034,-7.071623,-43.895411
5103007,Chapada dos Guimarães,MT,Cerrado,2220,0.8780,21.985,11.50,0.912,-15.011497,-55.692565
3170206,Uberlândia,MG,Cerrado,2216,0.9501,60.749,22.50,0.218,-19.081526,-48.227523
2100477,Alto Alegre do Pindaré,MA,Amazônia,2206,0.9130,44.709,7.28,0.656,-3.912027,-46.040284
3135209,Januária,MG,Cerrado,2193,0.9313,41.189,22.97,0.182,-15.275162,-44.925983
2103406,Coelho Neto,MA,Cerrado,2192,0.8764,42.609,13.92,0.617,-4.277346,-43.111440
1717008,Pindorama do Tocantins,TO,Cerrado,2175,0.8772,20.708,27.03,0.464,-11.179928,-47.597998
3162401,São João da Ponte,MG,Cerrado,2171,0.9381,74.196,10.11,0.187,-15.830268,-43.743833
1505650,Placas,PA,Amazônia,2162,0.3465,16.220,3.50,1.330,-3.817481,-54.519166
1506138,Redenção,PA,Amazônia,2160,0.7779,24.871,20.35,1.184,-8.087600,-50.136047
2110401,São Benedito do Rio Preto,MA,Cerrado,2146,0.7721,96.305,12.97,0.942,-3.468638,-43.611213
5204656,Campinaçu,GO,Cerrado,2137,0.5871,11.993,5.09,0.355,-13.845397,-48.521234
2114007,Zé Doca,MA,Amazônia,2125,0.9394,54.957,4.99,0.726,-3.274756,-45.858886
2112100,Timbiras,MA,Cerrado,2121,0.8419,39.522,7.76,0.601,-4.128060,-43.773348
5107743,Santa Cruz do Xingu,MT,Amazônia,2104,0.5133,35.033,26.14,1.022,-10.152492,-52.505877
3164308,São Roque de Minas,MG,Cerrado,2103,0.6088,11.254,10.42,0.533,-20.225092,-46.576848
5106455,Planalto da Serra,MT,Cerrado,2103,0.9936,33.612,19.08,0.045,-14.628269,-54.758671
1501725,Brasil Novo,PA,Amazônia,2097,0.5420,27.532,2.82,1.474,-3.210596,-52.601695
1301902,Itacoatiara,AM,Amazônia,2095,0.1821,20.314,2.28,1.573,-3.270695,-58.799796
2105450,Jatobá,MA,Cerrado,2090,0.9636,45.233,16.98,0.165,-5.864215,-44.253781
5108204,Torixoréu,MT,Cerrado,2086,0.9284,27.840,55.86,0.219,-16.301254,-52.896363
1503705,Itupiranga,PA,Amazônia,2062,0.6058,23.094,4.05,1.172,-5.088921,-49.781413
5219803,São Domingos,GO,Cerrado,2060,0.9133,28.380,18.70,0.660,-13.441854,-46.408192
2104602,Governador Eugênio Barros,MA,Cerrado,2058,0.8426,66.553,11.02,0.322,-5.400375,-44.075047
5102694,Canabrava do Norte,MT,Amazônia,2055,0.9296,35.252,54.74,0.343,-11.105732,-51.910623
2112506,Tutóia,MA,Cerrado,2052,0.5616,21.369,28.92,0.740,-2.962319,-42.422016
3121605,Diamantina,MG,Cerrado,2039,0.9412,14.459,57.50,0.326,-18.055416,-43.701432
5106281,Novo São Joaquim,MT,Cerrado,2036,0.8757,50.859,29.05,0.791,-15.199243,-53.647975
2110708,São Domingos do Maranhão,MA,Cerrado,2035,0.9252,63.687,12.92,0.393,-5.611348,-44.317764
2112456,Turilândia,MA,Amazônia,2034,0.8748,63.788,6.86,0.375,-2.218159,-45.504285
1707207,Dois Irmãos do Tocantins,TO,Cerrado,2032,0.8792,30.469,31.68,0.265,-9.301094,-48.993534
2104206,Fortuna,MA,Cerrado,2028,0.9443,77.844,15.56,0.156,-5.637457,-43.959874
1303007,Nhamundá,AM,Amazônia,2027,0.3253,33.207,3.13,0.569,-2.169286,-56.948349
3164209,São Romão,MG,Cerrado,2024,0.8960,22.355,62.65,0.430,-16.319087,-45.422404
2204105,Francisco Ayres,PI,Caatinga,2015,0.9957,22.474,48.46,0.024,-6.670913,-42.777770
1506161,Rio Maria,PA,Amazônia,2009,0.7687,39.489,12.85,0.936,-7.352137,-49.895732
2110609,São Bernardo,MA,Cerrado,2008,0.8769,23.821,21.40,0.377,-3.338696,-42.455408
2919553,Luís Eduardo Magalhães,BA,Cerrado,2005,0.9464,30.841,20.77,0.333,-12.178456,-45.830604
1301506,Envira,AM,Amazônia,1998,0.3855,20.658,7.87,1.527,-7.569603,-70.082853
5107008,Poxoréu,MT,Cerrado,1992,0.8532,48.436,29.30,0.512,-15.587873,-53.992688
3109402,Buritizeiro,MG,Cerrado,1986,0.8546,22.859,32.95,0.372,-17.365033,-45.174172
2105963,Lagoa Grande do Maranhão,MA,Cerrado,1971,0.9595,63.818,12.42,0.060,-4.911198,-45.393262
2200459,Alvorada do Gurguéia,PI,Cerrado,1969,0.9025,58.677,14.84,0.625,-8.454581,-43.972343
1100015,Alta Floresta D'Oeste,RO,Amazônia,1953,0.7696,61.152,6.33,0.418,-12.787537,-62.130197
1400233,Caroebe,RR,Amazônia,1952,0.4271,24.299,5.42,0.498,0.861176,-59.527069
5206206,Cristalina,GO,Cerrado,1951,0.8805,28.115,20.61,0.425,-16.733164,-47.536588
5106257,Nova Xavantina,MT,Cerrado,1950,0.7953,25.799,12.99,0.633,-14.657561,-52.472670
2202703,Cocal,PI,Caatinga,1948,0.8164,39.936,18.73,0.180,-3.505800,-41.603776
2201507,Batalha,PI,Caatinga,1945,0.9278,29.703,22.69,0.336,-4.074911,-42.106130
2305407,Icó,CE,Caatinga,1943,0.9887,36.065,50.01,0.057,-6.437326,-38.802890
5220702,Sítio d'Abadia,GO,Cerrado,1940,0.9892,39.846,43.62,0.072,-14.695819,-46.228611
3155603,Rio Pardo de Minas,MG,Mata Atlântica,1920,0.7721,20.535,20.82,0.460,-15.674920,-42.552723
5220207,São Miguel do Araguaia,GO,Cerrado,1909,0.9151,46.923,15.79,0.342,-12.878070,-50.236724
2312205,Santa Quitéria,CE,Caatinga,1905,0.9810,27.258,64.84,0.144,-4.331577,-40.102288
2907202,Casa Nova,BA,Caatinga,1892,0.9526,14.601,12.65,0.419,-9.113040,-41.154877
2201051,Assunção do Piauí,PI,Caatinga,1885,0.9928,60.510,57.62,0.058,-5.825446,-41.047986
1500958,Aurora do Pará,PA,Amazônia,1882,0.5894,19.076,4.67,1.317,-2.250798,-47.813899
1716505,Pedro Afonso,TO,Cerrado,1874,0.8346,34.441,30.40,0.743,-9.255529,-47.975966
2206720,Nazária,PI,Caatinga,1868,0.9605,28.969,12.20,0.180,-5.439699,-42.864695
5207600,Fazenda Nova,GO,Cerrado,1866,0.5625,21.365,8.96,0.136,-16.053467,-50.976988
2301109,Aracati,CE,Caatinga,1856,0.9576,38.502,45.44,0.218,-4.675449,-37.684962
2602001,Bodocó,PE,Caatinga,1856,0.9734,32.334,27.19,0.172,-7.591578,-39.988276
4209300,Lages,SC,Mata Atlântica,1852,0.0719,9.625,3.77,1.835,-28.082350,-50.340039
1703057,Bandeirantes do Tocantins,TO,Amazônia,1823,0.9930,67.601,23.06,0.019,-7.914133,-48.695271
1304203,Tefé,AM,Amazônia,1819,0.0847,24.625,1.47,2.169,-3.624993,-64.628385
4302303,Bom Jesus,RS,Mata Atlântica,1811,0.0898,11.494,4.32,0.200,-28.585381,-50.361589
1200351,Marechal Thaumaturgo,AC,Amazônia,1809,0.3591,13.454,3.52,2.456,-8.997631,-72.616789
2103174,Centro Novo do Maranhão,MA,Amazônia,1795,0.7255,33.929,3.97,1.868,-2.931423,-46.542889
2933307,Vitória da Conquista,BA,Mata Atlântica,1777,0.9271,17.677,29.52,0.415,-14.960011,-40.914384
1504901,Muaná,PA,Amazônia,1776,0.7224,36.375,4.51,1.143,-1.271929,-49.227249
2311264,Quiterianópolis,CE,Caatinga,1773,0.9958,44.787,75.68,0.052,-5.803251,-40.799825
1502301,Capitão Poço,PA,Amazônia,1765,0.6865,21.883,4.83,1.120,-2.130971,-47.251762
2200301,Alto Longá,PI,Caatinga,1759,0.9722,25.491,24.32,0.350,-5.432974,-42.198897
1709807,Ipueiras,TO,Cerrado,1759,0.9493,19.500,28.77,0.257,-11.143954,-48.404448
1501956,Cachoeira do Piriá,PA,Amazônia,1754,0.6367,28.595,3.91,1.502,-2.040926,-46.462274
5108956,Nova Monte Verde,MT,Amazônia,1729,0.4798,20.867,7.33,0.233,-10.191027,-57.143690
5213103,Mineiros,GO,Cerrado,1719,0.5953,31.147,11.36,0.485,-17.736226,-52.669535
5222203,Vila Boa,GO,Cerrado,1713,0.9644,39.131,28.38,0.115,-14.979633,-47.060849
5107875,Sapezal,MT,Cerrado,1709,0.4474,69.521,7.59,0.401,-12.800569,-58.498059
1700251,Abreulândia,TO,Cerrado,1709,0.7541,31.633,37.48,0.470,-9.553753,-49.158074
1718907,Santa Rosa do Tocantins,TO,Cerrado,1708,0.8332,18.531,12.78,0.440,-11.359575,-48.046520
2201200,Barras,PI,Caatinga,1705,0.8552,27.940,13.75,0.522,-4.154988,-42.386271
1600402,Mazagão,AP,Amazônia,1705,0.5159,20.137,4.07,1.648,-0.353389,-51.719024
2304707,Granja,CE,Caatinga,1693,0.9391,20.910,44.04,0.154,-3.216484,-40.971650
2303105,Cariré,CE,Caatinga,1688,0.9712,22.692,50.15,0.303,-3.924490,-40.517236
2930907,Tabocas do Brejo Velho,BA,Cerrado,1685,0.9439,46.841,9.51,0.240,-12.401295,-44.126385
2112407,Turiaçu,MA,Amazônia,1684,0.7302,19.530,7.93,0.925,-1.778377,-45.492423
2300309,Acopiara,CE,Caatinga,1678,0.9702,51.178,31.81,0.037,-6.146330,-39.532214
1503903,Juruti,PA,Amazônia,1671,0.2000,21.128,2.24,0.903,-2.383345,-56.097098
3161700,São Gonçalo do Abaeté,MG,Cerrado,1663,0.9529,21.714,51.51,0.109,-18.190301,-45.501298
5101001,Araguaiana,MT,Cerrado,1662,0.8046,43.469,47.86,1.617,-14.883195,-51.694011
2926400,Riacho de Santana,BA,Caatinga,1660,0.8397,27.765,13.75,0.363,-13.709062,-43.122347
5222302,Vila Propício,GO,Cerrado,1650,0.8915,15.055,14.17,0.882,-15.151280,-48.725194
2904605,Brumado,BA,Caatinga,1646,0.9463,17.241,23.93,0.155,-14.200678,-41.658769
2205524,Júlio Borges,PI,Cerrado,1643,0.9667,45.882,24.19,0.099,-10.362942,-44.139024
3170800,Várzea da Palma,MG,Cerrado,1643,0.8878,17.146,33.21,0.482,-17.519594,-44.699723
2923704,Paratinga,BA,Caatinga,1640,0.7664,47.399,14.81,0.476,-12.654844,-43.119028
1304104,Tapauá,AM,Amazônia,1631,0.3457,55.396,4.35,1.043,-6.375217,-63.183595
2209500,Santo Inácio do Piauí,PI,Caatinga,1625,0.9973,29.473,33.95,0.017,-7.453170,-42.040272
3170107,Uberaba,MG,Cerrado,1615,0.9180,49.431,18.83,0.309,-19.630666,-47.947593
2101202,Bacabal,MA,Amazônia,1601,0.9369,31.635,7.70,0.541,-4.167866,-44.717011
1303502,Pauini,AM,Amazônia,1583,0.5253,22.036,5.16,0.880,-7.772212,-67.293198
1702109,Araguaína,TO,Cerrado,1579,0.8082,26.558,12.58,0.456,-7.332771,-48.405790
2925709,Presidente Jânio Quadros,BA,Caatinga,1578,0.9923,39.185,31.15,0.025,-14.704937,-41.717965
1100320,São Miguel do Guaporé,RO,Amazônia,1577,0.8906,27.809,13.42,0.772,-11.560096,-63.090480
1720903,Taguatinga,TO,Cerrado,1570,0.7767,18.156,18.27,1.041,-12.366648,-46.550917
2206407,Monsenhor Gil,PI,Caatinga,1570,0.9622,17.936,11.51,0.203,-5.609934,-42.651530
5107941,Tabaporã,MT,Amazônia,1568,0.4780,27.779,12.19,0.617,-11.145693,-56.563961
2930758,Sítio do Mato,BA,Cerrado,1565,0.8557,48.605,10.96,0.461,-12.808869,-43.456278
1400308,Mucajaí,RR,Amazônia,1558,0.4562,54.231,4.79,0.145,2.480374,-61.177694
5103908,General Carneiro,MT,Cerrado,1556,0.8696,26.414,43.01,0.353,-15.609393,-53.422997
2106631,Matões do Norte,MA,Cerrado,1548,0.8668,46.724,5.27,0.570,-3.762950,-44.460838
2105609,Joselândia,MA,Cerrado,1539,0.8660,68.485,7.17,0.310,-5.036285,-44.779106
5217302,Pirenópolis,GO,Cerrado,1533,0.8504,27.769,12.72,0.337,-15.766051,-48.981431
3148103,Patrocínio,MG,Cerrado,1533,0.8941,23.903,15.23,0.300,-18.929822,-46.985748
1505205,Oeiras do Pará,PA,Amazônia,1530,0.3883,21.472,3.58,1.513,-2.523728,-49.843074
2110302,Santo Antônio dos Lopes,MA,Cerrado,1527,0.7764,51.673,8.10,0.626,-4.804383,-44.470203
2104404,Gonçalves Dias,MA,Cerrado,1523,0.7196,74.642,7.70,0.763,-5.181382,-44.219905
2210391,São Miguel do Fidalgo,PI,Caatinga,1517,0.9887,12.704,59.91,0.012,-7.659030,-42.377969
2902005,Aracatu,BA,Caatinga,1508,0.9928,26.923,24.62,0.296,-14.396127,-41.393323
1507201,São Domingos do Capim,PA,Amazônia,1508,0.3762,12.229,2.97,2.752,-1.867866,-47.769076
2311405,Quixeramobim,CE,Caatinga,1503,0.9555,16.666,42.04,0.091,-5.274132,-39.327178
2920205,Malhada,BA,Cerrado,1502,0.9587,27.239,20.90,0.253,-14.158670,-43.636580
2106904,Monção,MA,Amazônia,1500,0.9628,35.626,5.73,0.428,-3.455702,-45.341039
2208700,Redenção do Gurguéia,PI,Cerrado,1487,0.8687,32.135,12.31,0.587,-9.585479,-44.565159
1101492,São Francisco do Guaporé,RO,Amazônia,1477,0.8189,19.735,11.20,0.762,-12.259286,-63.450032
1712504,Marianópolis do Tocantins,TO,Cerrado,1471,0.8651,48.900,42.39,0.442,-9.745847,-49.730101
5200803,Alvorada do Norte,GO,Cerrado,1463,0.7614,18.055,14.04,1.456,-14.610270,-46.612899
5107883,Serra Nova Dourada,MT,Cerrado,1458,0.7519,34.858,15.46,0.331,-11.934732,-51.343978
1707108,Divinópolis do Tocantins,TO,Cerrado,1456,0.9062,35.146,52.68,0.459,-9.778896,-49.157837
2208403,Piripiri,PI,Caatinga,1448,0.9502,23.788,36.71,0.065,-4.345012,-41.816457
2205599,Lagoa do Sítio,PI,Caatinga,1447,0.9868,34.969,58.20,0.071,-6.480366,-41.520998
1504752,Mojuí dos Campos,PA,Amazônia,1446,0.1871,8.974,2.23,2.704,-2.994670,-54.593297
1703008,Babaçulândia,TO,Cerrado,1442,0.6827,31.716,5.78,0.433,-7.175144,-47.918238
1715754,Palmeirópolis,TO,Cerrado,1441,0.7963,12.822,6.02,0.542,-13.084051,-48.399611
2108900,Poção de Pedras,MA,Cerrado,1438,0.8860,49.513,9.38,0.308,-4.803649,-44.957405
2302800,Canindé,CE,Caatinga,1429,0.9633,18.933,79.89,0.202,-4.446159,-39.373327
2108603,Pinheiro,MA,Amazônia,1426,0.8986,64.418,11.37,0.325,-2.628123,-45.189153
1508308,Viseu,PA,Amazônia,1425,0.6049,23.165,6.64,1.154,-1.517165,-46.423531
2302404,Boa Viagem,CE,Caatinga,1425,0.9611,30.279,70.07,0.100,-5.067314,-39.803136
2929057,São Félix do Coribe,BA,Cerrado,1416,0.8232,47.105,12.03,0.523,-13.540293,-44.023481
3143302,Montes Claros,MG,Cerrado,1415,0.8898,27.314,21.22,0.242,-16.676659,-43.930033
2904407,Brejolândia,BA,Cerrado,1412,0.7654,46.468,16.06,0.241,-12.460925,-43.784217
5100201,Água Boa,MT,Cerrado,1412,0.8771,41.819,20.38,0.255,-13.933794,-52.598883
3119302,Coromandel,MG,Cerrado,1406,0.7901,15.491,27.78,1.396,-18.477029,-47.088394
2108454,Peritoró,MA,Cerrado,1404,0.8637,44.213,8.20,0.504,-4.415966,-44.293771
2909109,Coribe,BA,Cerrado,1403,0.8663,36.046,31.08,0.130,-13.785063,-44.307354
2201101,Avelino Lopes,PI,Cerrado,1396,0.9810,71.095,20.61,0.059,-10.157946,-43.969012
3126604,Francisco Dumont,MG,Cerrado,1395,0.9799,28.765,65.67,0.106,-17.561506,-44.278788
2610400,Parnamirim,PE,Caatinga,1393,0.9888,32.999,44.14,0.062,-8.095443,-39.685625
2931806,Tremedal,BA,Caatinga,1390,0.9744,18.509,47.89,0.083,-15.011187,-41.446334
2913200,Ibotirama,BA,Cerrado,1381,0.8451,48.332,33.32,0.456,-11.916346,-43.269676
1505700,Ponta de Pedras,PA,Amazônia,1380,0.8491,27.555,6.08,0.615,-1.263686,-49.020328
5208608,Goianésia,GO,Cerrado,1379,0.7300,29.581,10.31,0.084,-15.244110,-49.241650
5211909,Jataí,GO,Cerrado,1370,0.9168,54.009,16.15,0.474,-18.000173,-51.754088
2203602,Eliseu Martins,PI,Cerrado,1366,0.9763,99.736,31.16,0.162,-8.014420,-43.625006
2206803,Nossa Senhora dos Remédios,PI,Caatinga,1362,0.8515,53.634,16.58,0.103,-4.040697,-42.535979
1703073,Barra do Ouro,TO,Cerrado,1360,0.9061,44.094,16.87,0.574,-7.617718,-47.523176
1706506,Darcinópolis,TO,Cerrado,1359,0.6770,22.469,10.96,0.595,-6.753182,-47.838586
2102200,Buriti,MA,Cerrado,1358,0.9286,35.265,12.18,0.289,-3.916095,-43.012718
1722081,Wanderlândia,TO,Cerrado,1351,0.7858,34.997,16.17,0.302,-6.886368,-47.917956
5104609,Itiquira,MT,Pantanal,1346,0.3421,43.209,4.96,1.369,-17.337456,-54.832313
2909703,Cristópolis,BA,Cerrado,1346,0.9472,61.170,23.11,0.144,-12.194595,-44.205069
1703701,Brejinho de Nazaré,TO,Cerrado,1343,0.6123,27.861,11.05,0.553,-11.081994,-48.599494
2107209,Nina Rodrigues,MA,Cerrado,1339,0.7204,53.675,10.78,0.444,-3.495909,-43.739507
1703867,Cariri do Tocantins,TO,Cerrado,1338,0.3382,77.784,9.37,1.116,-11.900369,-49.230273
2108058,Paulino Neves,MA,Cerrado,1338,0.7911,17.279,31.14,0.195,-2.903739,-42.619498
5007109,Ribas do Rio Pardo,MS,Cerrado,1337,0.6524,37.182,7.17,1.142,-20.593977,-53.544064
3116159,Chapada Gaúcha,MG,Cerrado,1333,0.8909,31.263,15.47,0.254,-15.464787,-45.451438
5003256,Costa Rica,MS,Cerrado,1331,0.5542,47.725,3.90,2.188,-18.427640,-53.287476
2108801,Pirapemas,MA,Cerrado,1326,0.9270,56.640,8.05,0.245,-3.782097,-44.146193
1702208,Araguatins,TO,Amazônia,1326,0.7976,39.385,7.98,0.639,-5.709330,-48.108183
5221080,Teresina de Goiás,GO,Cerrado,1322,0.9239,8.456,8.14,0.192,-13.592687,-47.244714
5003900,Figueirão,MS,Cerrado,1319,0.7122,57.145,8.07,0.682,-18.842895,-53.681739
2101004,Arari,MA,Amazônia,1318,0.9196,18.545,5.99,0.543,-3.554975,-44.721041
2600203,Afrânio,PE,Caatinga,1316,0.9787,37.726,24.62,0.234,-8.624036,-40.997838
2314102,Viçosa do Ceará,CE,Caatinga,1315,0.9567,24.623,63.34,0.165,-3.557831,-41.133645
1504604,Mocajuba,PA,Amazônia,1313,0.4284,26.566,3.99,2.695,-2.535146,-49.363971
1721307,Tupiratins,TO,Cerrado,1297,0.9108,33.394,14.52,0.282,-8.411728,-48.236340
2901205,Anagé,BA,Caatinga,1296,0.9651,28.129,27.78,0.424,-14.586093,-40.946748
2102101,Brejo,MA,Cerrado,1296,0.9291,17.887,20.34,0.374,-3.674452,-42.806769
5106265,Novo Mundo,MT,Amazônia,1294,0.7326,21.979,33.69,1.387,-9.691123,-55.292158
4216503,São Joaquim,SC,Mata Atlântica,1289,0.0753,5.934,4.04,0.087,-28.295715,-50.061267
1716109,Paraíso do Tocantins,TO,Cerrado,1285,0.8890,23.775,16.91,0.379,-10.256287,-48.830801
5003306,Coxim,MS,Cerrado,1282,0.6518,58.275,13.78,0.823,-18.394737,-54.655127
1600105,Amapá,AP,Amazônia,1278,0.8673,15.280,9.89,0.617,1.972940,-50.816854
2207801,Paulistana,PI,Caatinga,1276,0.9828,39.338,43.81,0.283,-8.064112,-41.122387
1200138,Bujari,AC,Amazônia,1266,0.5762,14.144,4.82,0.772,-9.552453,-68.162601
1300029,Alvarães,AM,Amazônia,1265,0.0774,22.163,1.10,2.265,-3.430340,-64.982209
3156908,Sacramento,MG,Cerrado,1262,0.7530,18.353,18.97,0.223,-19.957184,-47.206067
2920502,Maracás,BA,Caatinga,1261,0.9380,19.272,19.57,0.181,-13.419571,-40.531909
5103502,Diamantino,MT,Cerrado,1260,0.4120,39.400,14.24,0.157,-14.093820,-56.726054
2308500,Mombaça,CE,Caatinga,1258,0.9437,47.601,47.17,0.088,-5.758600,-39.750673
2104107,Fortaleza dos Nogueiras,MA,Cerrado,1258,0.8451,20.504,10.13,0.491,-6.942940,-46.071281
1712157,Lavandeira,TO,Cerrado,1257,0.9339,37.729,41.25,0.045,-12.926719,-46.291042
2202778,Colônia do Piauí,PI,Caatinga,1255,0.9920,19.040,47.32,0.046,-7.231438,-42.175287
2104651,Governador Newton Bello,MA,Amazônia,1253,0.9422,48.095,5.48,1.223,-3.435490,-45.900958
2202604,Castelo do Piauí,PI,Caatinga,1247,0.9917,11.974,35.23,0.081,-5.381014,-41.462904
2609907,Ouricuri,PE,Caatinga,1244,0.9859,22.831,27.73,0.252,-7.921705,-40.218061
2203107,Cristino Castro,PI,Cerrado,1238,0.9268,34.671,34.35,0.449,-8.708877,-44.002439
3108255,Bonito de Minas,MG,Cerrado,1237,0.9711,32.584,13.98,0.127,-14.859161,-45.004379
1709500,Gurupi,TO,Cerrado,1233,0.6925,28.006,19.86,0.585,-11.650745,-48.863163
5218805,Rio Verde,GO,Cerrado,1232,0.7761,44.772,8.60,1.463,-17.913792,-50.964302
1200393,Porto Walter,AC,Amazônia,1232,0.3869,18.875,3.90,2.561,-8.426359,-72.686904
1303809,São Gabriel da Cachoeira,AM,Amazônia,1229,0.0183,8.798,1.78,1.899,0.548521,-68.239448
1300508,Barreirinha,AM,Amazônia,1227,0.2205,13.736,2.83,1.505,-3.079506,-57.103517
1709302,Guaraí,TO,Cerrado,1226,0.8009,37.436,19.75,0.701,-8.742046,-48.421515
1508100,Tucuruí,PA,Amazônia,1221,0.5109,26.067,2.95,1.597,-3.846679,-49.854874
5103403,Cuiabá,MT,Cerrado,1220,0.8650,25.711,12.84,1.180,-15.420735,-56.022878
1301159,Careiro da Várzea,AM,Amazônia,1219,0.2335,36.323,2.21,0.763,-3.393928,-59.504303
2109809,Santa Helena,MA,Amazônia,1217,0.8255,35.259,6.54,0.781,-2.571989,-45.470271
2102606,Cândido Mendes,MA,Amazônia,1217,0.7658,34.829,7.26,0.504,-1.685405,-45.733323
2910404,Encruzilhada,BA,Mata Atlântica,1214,0.8153,20.771,41.84,0.238,-15.622967,-41.065500
5200605,Alto Paraíso de Goiás,GO,Cerrado,1214,0.8647,22.094,19.74,0.506,-14.265136,-47.628824
2915353,Itaguaçu da Bahia,BA,Caatinga,1205,0.9542,35.951,12.92,0.399,-10.691186,-42.300505
5002209,Bonito,MS,Cerrado,1200,0.3627,35.741,7.66,1.538,-20.964861,-56.531926
1600204,Calçoene,AP,Amazônia,1196,0.7060,9.592,10.09,0.431,2.424757,-51.007330
5209408,Guarani de Goiás,GO,Cerrado,1191,0.9874,22.711,74.89,0.147,-13.885602,-46.325243
2202208,Campo Maior,PI,Caatinga,1190,0.9645,43.190,26.60,0.141,-4.799963,-42.098507
2313302,Tauá,CE,Caatinga,1189,0.9841,29.919,51.06,0.047,-5.935967,-40.252480
2605152,Dormentes,PE,Caatinga,1184,0.9684,36.733,38.56,0.118,-8.496731,-40.563551
2203206,Curimatá,PI,Cerrado,1184,0.8854,36.940,21.80,0.239,-9.939173,-44.215074
2208205,Pio IX,PI,Caatinga,1183,0.9902,49.579,29.09,0.092,-6.719306,-40.813434
2102705,Cantanhede,MA,Cerrado,1182,0.9261,35.528,8.77,0.135,-3.631187,-44.276250
1503077,Garrafão do Norte,PA,Amazônia,1179,0.7251,18.646,4.32,1.369,-2.225500,-47.092486
2205706,Luís Correia,PI,Caatinga,1178,0.9108,23.897,46.27,0.189,-3.070218,-41.538969
3127800,Grão Mogol,MG,Cerrado,1169,0.8398,34.598,34.45,0.676,-16.410921,-43.038887
5007935,Sonora,MS,Cerrado,1162,0.4420,28.493,3.89,1.363,-17.513749,-54.026888
5007901,Sidrolândia,MS,Cerrado,1159,0.8729,24.551,6.47,0.333,-21.018353,-54.939009
1100403,Alto Paraíso,RO,Amazônia,1153,0.7968,14.412,6.36,1.151,-9.582163,-63.354110
2105005,Humberto de Campos,MA,Cerrado,1151,0.6214,21.324,13.87,0.313,-2.794433,-43.557816
2305902,Ipueiras,CE,Caatinga,1149,0.9747,22.429,42.76,0.130,-4.557695,-40.802021
1505437,Ourilândia do Norte,PA,Amazônia,1149,0.6715,22.379,9.40,1.400,-7.080111,-51.182527
1400050,Alto Alegre,RR,Amazônia,1148,0.4899,22.606,4.49,0.815,3.085749,-61.391297
3141801,Minas Novas,MG,Cerrado,1147,0.8016,73.535,50.28,0.144,-17.340214,-42.595055
5005202,Ladário,MS,Pantanal,1146,0.7616,81.815,3.75,1.039,-19.054492,-57.529619
1600238,Ferreira Gomes,AP,Amazônia,1143,0.8805,24.575,7.07,1.429,0.916008,-51.172213
2605301,Exu,PE,Caatinga,1141,0.9115,31.923,30.55,0.379,-7.490328,-39.733374
5202155,Araguapaz,GO,Cerrado,1141,0.7008,27.349,14.15,0.530,-15.141636,-50.231470
1502509,Chaves,PA,Amazônia,1141,0.4812,10.562,5.62,1.584,0.046592,-49.900791
5001102,Aquidauana,MS,Pantanal,1140,0.5035,23.491,4.49,3.790,-19.840422,-56.100830
3169356,Três Marias,MG,Cerrado,1139,0.9383,21.376,53.86,0.300,-18.268943,-45.120374
2303709,Caucaia,CE,Caatinga,1138,0.9422,14.168,61.87,0.062,-3.759434,-38.797301
2107258,Nova Colinas,MA,Cerrado,1137,0.7974,22.631,12.32,0.971,-7.148220,-46.245917
1507979,Terra Santa,PA,Amazônia,1133,0.3463,35.166,2.78,1.194,-2.036804,-56.516844
2304350,Forquilha,CE,Caatinga,1125,0.9885,23.424,50.70,0.109,-3.836332,-40.276605
1501907,Bujaru,PA,Amazônia,1124,0.1874,11.757,3.35,2.695,-1.658815,-48.086807
2923407,Palmas de Monte Alto,BA,Caatinga,1122,0.8383,40.536,32.05,0.841,-14.212272,-43.223363
3127602,Gouveia,MG,Cerrado,1118,0.9091,12.858,18.52,0.552,-18.535620,-43.870405
2906006,Campo Formoso,BA,Caatinga,1115,0.9399,8.933,18.88,0.152,-10.333077,-40.565681
4318002,São Borja,RS,Pampa,1114,0.4411,46.245,12.29,2.792,-28.753360,-55.666052
5211503,Itumbiara,GO,Cerrado,1114,0.9158,49.637,12.52,0.593,-18.347532,-49.472672
2921708,Morro do Chapéu,BA,Caatinga,1105,0.9430,18.840,35.62,0.160,-11.513129,-41.145285
2112902,Vitória do Mearim,MA,Amazônia,1105,0.9123,18.615,6.64,0.465,-3.584242,-44.896499
1200427,Rodrigues Alves,AC,Amazônia,1102,0.3241,27.639,2.96,1.779,-7.817612,-72.948956
5105606,Matupá,MT,Amazônia,1100,0.7114,37.478,38.60,0.838,-10.058156,-54.499807
1301209,Coari,AM,Amazônia,1099,0.1153,17.097,1.54,1.828,-4.035686,-63.576309
1500347,Água Azul do Norte,PA,Amazônia,1091,0.6889,24.396,10.33,1.127,-6.798875,-50.360068
1303403,Parintins,AM,Amazônia,1090,0.2412,14.829,2.68,0.930,-2.673931,-56.874445
3145455,Olhos-d'Água,MG,Cerrado,1090,0.8382,30.840,31.20,0.209,-17.447412,-43.616580
1714880,Nova Olinda,TO,Cerrado,1090,0.9241,42.405,20.66,0.129,-7.575401,-48.264432
2930204,Sento Sé,BA,Caatinga,1089,0.8610,17.498,7.67,1.239,-9.934059,-41.876042
2111409,São Luís Gonzaga do Maranhão,MA,Cerrado,1087,0.8662,49.033,5.79,0.836,-4.365538,-44.583457
2613503,São José do Belmonte,PE,Caatinga,1086,0.8434,25.478,23.94,0.809,-7.865109,-38.733326
2209708,São Francisco do Piauí,PI,Caatinga,1086,0.9871,21.614,12.17,0.044,-7.264854,-42.486943
1100304,Vilhena,RO,Amazônia,1085,0.8850,33.983,11.66,0.376,-12.219837,-60.219093
2306405,Itapipoca,CE,Caatinga,1083,0.9846,13.990,42.71,0.074,-3.461482,-39.598786
2307403,Jucás,CE,Caatinga,1083,0.9785,76.313,33.88,0.055,-6.447490,-39.609772
5101605,Barão de Melgaço,MT,Pantanal,1083,0.7641,37.389,4.82,1.682,-16.907176,-56.216022
3132503,Itamarandiba,MG,Cerrado,1083,0.5424,15.278,20.49,0.569,-17.833677,-42.827417
5218003,Porangatu,GO,Cerrado,1083,0.8771,22.452,23.18,0.605,-13.153924,-49.215418
1707702,Filadélfia,TO,Cerrado,1083,0.8076,19.378,9.58,0.412,-7.545027,-47.769518
5008305,Três Lagoas,MS,Cerrado,1078,0.3636,97.750,3.87,0.967,-20.471278,-52.229099
2109106,Presidente Dutra,MA,Cerrado,1078,0.9328,32.968,10.66,0.183,-5.271990,-44.443014
2207850,Pavussu,PI,Caatinga,1077,0.7940,96.944,8.51,0.016,-7.989793,-43.240506
3152808,Prata,MG,Cerrado,1073,0.8197,19.859,10.33,0.664,-19.328633,-48.984544
5108501,Vera,MT,Amazônia,1072,0.1987,55.548,3.39,0.294,-12.303987,-55.155400
3126703,Francisco Sá,MG,Cerrado,1065,0.8858,11.128,20.57,0.359,-16.414911,-43.555090
2205151,Jacobina do Piauí,PI,Caatinga,1062,0.9748,56.186,55.69,0.262,-7.897534,-41.188485
5104104,Guarantã do Norte,MT,Amazônia,1058,0.5537,25.124,31.06,2.146,-9.703657,-54.607389
2205508,José de Freitas,PI,Caatinga,1056,0.8010,46.655,10.63,0.583,-4.765868,-42.597617
5106505,Poconé,MT,Pantanal,1052,0.3712,29.177,2.14,5.038,-17.013291,-57.031907
2204600,Hugo Napoleão,PI,Caatinga,1049,0.9910,28.765,32.49,0.076,-6.069914,-42.470717
3149150,Pedras de Maria da Cruz,MG,Cerrado,1047,0.9432,28.686,9.67,0.331,-15.573942,-44.368344
2203503,Elesbão Veloso,PI,Caatinga,1043,0.9685,34.119,22.42,0.203,-6.177034,-42.208308
1501576,Bom Jesus do Tocantins,PA,Amazônia,1040,0.5409,21.174,4.49,1.621,-4.958115,-48.685614
5205109,Catalão,GO,Cerrado,1039,0.8817,23.555,23.65,0.338,-17.846777,-47.674970
2111631,São Raimundo do Doca Bezerra,MA,Cerrado,1035,0.9173,68.702,11.50,0.139,-5.086244,-45.137653
2928208,Santana,BA,Cerrado,1035,0.9138,56.491,16.87,0.679,-13.075815,-43.927118
2109759,Santa Filomena do Maranhão,MA,Cerrado,1034,0.9434,36.535,12.76,0.535,-5.500654,-44.649475
1711951,Lagoa do Tocantins,TO,Cerrado,1034,0.8180,19.965,47.15,0.199,-10.327915,-47.511616
3120904,Curvelo,MG,Cerrado,1033,0.9306,15.391,30.02,0.484,-18.821227,-44.480931
3119104,Corinto,MG,Cerrado,1032,0.9288,16.937,36.85,0.408,-18.275347,-44.593878
1200328,Jordão,AC,Amazônia,1030,0.4215,15.575,4.34,1.183,-9.125948,-71.873314
2312106,Santana do Cariri,CE,Caatinga,1028,0.9237,39.087,15.03,0.407,-7.242037,-39.705108
1301654,Guajará,AM,Amazônia,1025,0.3827,28.956,4.49,0.997,-7.314684,-72.659873
2905206,Caetité,BA,Caatinga,1020,0.8872,16.644,30.67,0.201,-13.909212,-42.458807
2305803,Ipu,CE,Caatinga,1016,0.9711,25.592,55.76,0.129,-4.358888,-40.681344
2305209,Hidrolândia,CE,Caatinga,1013,0.9803,21.411,53.71,0.183,-4.455145,-40.424519
5208707,Goiânia,GO,Cerrado,1010,0.9454,19.931,30.08,0.452,-16.637647,-49.293373
5106224,Nova Mutum,MT,Cerrado,1004,0.5685,51.319,16.07,0.522,-13.859835,-56.047603
3162708,São João do Paraíso,MG,Mata Atlântica,997,0.8112,24.353,35.62,0.318,-15.425900,-41.931681
2601102,Araripina,PE,Caatinga,996,0.9729,18.736,18.39,0.281,-7.645848,-40.477814
2107100,Morros,MA,Cerrado,994,0.8220,18.868,23.41,0.297,-2.959608,-43.792039
2311306,Quixadá,CE,Caatinga,991,0.9541,12.451,54.83,0.104,-4.933293,-38.965336
5006002,Nova Alvorada do Sul,MS,Cerrado,988,0.7732,44.551,5.91,0.564,-21.539604,-54.219778
3520103,Igarapava,SP,Cerrado,987,0.9764,70.610,23.35,0.052,-20.075216,-47.670309
3112703,Capitão Enéas,MG,Cerrado,984,0.8144,13.899,13.49,0.500,-16.135608,-43.666894
5002704,Campo Grande,MS,Cerrado,982,0.7540,11.981,6.52,0.911,-20.645966,-54.505386
3104809,Augusto de Lima,MG,Cerrado,982,0.9376,10.788,50.41,0.579,-18.100157,-44.230352
2203255,Curralinhos,PI,Caatinga,980,0.9449,43.553,14.03,0.114,-5.602558,-42.851937
2205581,Lagoa do Piauí,PI,Caatinga,979,0.9859,11.677,14.40,0.065,-5.478100,-42.650574
2210979,Tanque do Piauí,PI,Caatinga,976,0.9768,20.396,30.53,0.309,-6.698053,-42.216759
1718006,Porto Alegre do Tocantins,TO,Cerrado,976,0.8415,41.164,10.28,2.412,-11.515704,-47.036516
2207108,Olho D'Água do Piauí,PI,Caatinga,971,0.9593,51.646,15.72,0.069,-5.832970,-42.559470
2304202,Crato,CE,Caatinga,967,0.9563,18.347,14.25,0.094,-7.178780,-39.457770
2110203,Santa Rita,MA,Amazônia,963,0.8973,23.219,14.21,0.342,-3.150187,-44.345720
2111052,São João do Paraíso,MA,Cerrado,961,0.5887,20.313,6.30,0.506,-6.454313,-46.918890
2113009,Vitorino Freire,MA,Amazônia,958,0.9210,60.950,7.35,0.396,-4.281500,-45.346266
3118205,Conquista,MG,Cerrado,957,0.9618,57.006,32.26,0.093,-19.989824,-47.615971
2613909,Serra Talhada,PE,Caatinga,954,0.8777,16.627,27.72,0.442,-7.987241,-38.396600
5107354,São José do Xingu,MT,Amazônia,954,0.6587,22.061,19.45,1.627,-10.668712,-52.591353
2202000,Buriti dos Lopes,PI,Cerrado,949,0.8529,40.710,19.66,0.159,-3.199163,-41.842730
1503507,Irituia,PA,Amazônia,946,0.4608,14.809,3.47,2.156,-1.800033,-47.395631
1200054,Assis Brasil,AC,Amazônia,942,0.4579,17.705,4.34,0.835,-10.759421,-69.596465
1504950,Nova Esperança do Piriá,PA,Amazônia,941,0.6471,15.693,2.92,1.821,-2.497048,-47.086632
2104628,Governador Luiz Rocha,MA,Cerrado,938,0.8480,82.193,11.64,0.715,-5.510387,-44.089308
4120606,Prudentópolis,PR,Mata Atlântica,937,0.3152,15.964,6.67,0.806,-25.083985,-51.105280
2108306,Penalva,MA,Amazônia,936,0.9358,42.534,4.65,0.387,-3.256293,-45.367034
1304260,Uarini,AM,Amazônia,935,0.0620,21.642,1.23,2.842,-3.029870,-65.219506
1301407,Eirunepé,AM,Amazônia,935,0.3345,14.875,3.72,1.524,-6.837799,-70.022320
1501709,Bragança,PA,Amazônia,929,0.6974,22.907,6.83,0.662,-1.220116,-46.761758
5208905,Goiás,GO,Cerrado,927,0.8842,18.593,24.56,0.734,-15.833508,-50.219442
1200807,Porto Acre,AC,Amazônia,925,0.5755,10.602,4.09,1.163,-9.647554,-67.596731
2303303,Cariús,CE,Caatinga,924,0.9444,38.857,26.49,0.080,-6.607249,-39.451195
2112803,Viana,MA,Amazônia,922,0.9005,23.103,7.85,0.358,-3.125479,-45.117912
3121209,Delfinópolis,MG,Cerrado,921,0.9130,7.556,16.97,0.226,-20.350054,-46.720148
1100023,Ariquemes,RO,Amazônia,920,0.8773,24.769,9.36,0.734,-9.974691,-63.028237
2204709,Inhuma,PI,Caatinga,916,0.9596,29.726,36.79,0.238,-6.680565,-41.638652
3134608,Jaboticatubas,MG,Cerrado,907,0.8915,8.675,13.72,0.451,-19.442773,-43.733430
2103703,Cururupu,MA,Amazônia,904,0.7642,18.151,,0.227,-1.842160,-44.814847
5104203,Guiratinga,MT,Cerrado,903,0.5753,50.438,9.52,0.767,-16.332909,-53.747454
1301803,Ipixuna,AM,Amazônia,903,0.3845,32.887,3.46,1.476,-7.092122,-71.599238
5218508,Quirinópolis,GO,Mata Atlântica,901,0.8724,56.243,9.58,0.912,-18.497914,-50.549368
2906899,Caraíbas,BA,Caatinga,900,0.9938,16.855,23.05,0.204,-14.617816,-41.290557
2106300,Magalhães de Almeida,MA,Cerrado,899,0.8793,22.687,26.74,0.331,-3.289837,-42.147773
1302504,Manacapuru,AM,Amazônia,899,0.1574,15.356,1.76,1.964,-3.294489,-60.938772
1507607,São Miguel do Guamá,PA,Amazônia,892,0.4942,10.441,3.40,1.934,-1.546589,-47.661276
1702000,Araguaçu,TO,Cerrado,891,0.8078,31.718,14.74,0.989,-12.907820,-49.631051
2301307,Araripe,CE,Caatinga,889,0.9295,32.810,22.62,0.298,-7.225493,-40.086579
2209856,São João da Canabrava,PI,Caatinga,889,0.9934,42.929,67.13,0.035,-6.619353,-41.429133
3301009,Campos dos Goytacazes,RJ,Mata Atlântica,882,0.8409,10.404,8.74,0.743,-21.768129,-41.340087
2100808,Anapurus,MA,Cerrado,881,0.8668,21.527,16.51,0.479,-3.548161,-43.118347
2306603,Itatira,CE,Caatinga,880,0.9807,25.866,76.02,0.087,-4.634490,-39.561464
1508407,Xinguara,PA,Amazônia,880,0.9041,25.411,13.38,0.388,-6.804377,-49.524992
3151206,Pirapora,MG,Cerrado,878,0.7676,15.632,30.28,0.488,-17.357427,-44.870664
3148004,Patos de Minas,MG,Cerrado,878,0.9088,24.160,16.76,0.331,-18.554204,-46.579599
3109204,Buenópolis,MG,Cerrado,878,0.9490,8.445,48.25,0.269,-17.925517,-44.107256
5202353,Arenópolis,GO,Cerrado,877,0.8676,35.710,24.42,0.053,-16.357687,-51.509772
5002605,Camapuã,MS,Cerrado,870,0.4325,16.251,4.41,0.849,-19.171474,-53.610915
4303608,Cambará do Sul,RS,Mata Atlântica,868,0.1543,7.701,4.19,0.184,-29.051778,-50.133771
1600600,Santana,AP,Amazônia,865,0.6821,19.934,8.28,0.659,0.082182,-51.368355
2206308,Miguel Leão,PI,Caatinga,858,0.9887,28.061,9.73,0.091,-5.701173,-42.688925
5220504,Serranópolis,GO,Cerrado,857,0.6781,20.678,13.10,1.349,-18.295625,-52.036966
4318622,São José dos Ausentes,RS,Mata Atlântica,857,0.1403,7.601,4.10,0.175,-28.651489,-49.921382
2308609,Monsenhor Tabosa,CE,Caatinga,854,0.9846,36.724,105.08,0.019,-4.850271,-40.031956
1706001,Couto Magalhães,TO,Cerrado,854,0.8730,22.878,20.18,0.754,-8.418454,-49.120950
5211305,Itarumã,GO,Cerrado,852,0.6090,38.175,9.72,1.658,-18.779298,-51.498477
2308104,Mauriti,CE,Caatinga,851,0.9192,23.063,16.27,0.546,-7.373155,-38.700940
5212501,Luziânia,GO,Cerrado,843,0.9121,14.822,19.85,0.194,-16.366159,-47.930630
2905909,Campo Alegre de Lourdes,BA,Caatinga,841,0.8952,21.930,24.74,0.303,-9.550800,-43.129239
1502954,Eldorado do Carajás,PA,Amazônia,841,0.9415,24.730,7.10,0.429,-6.059516,-49.313748
2104008,Esperantinópolis,MA,Cerrado,840,0.8941,59.216,9.48,0.406,-4.909902,-44.910196
2103554,Conceição do Lago-Açu,MA,Amazônia,840,0.9125,22.114,4.79,0.595,-3.806790,-44.837619
1702307,Arapoema,TO,Amazônia,840,0.9450,64.447,17.30,0.064,-7.717490,-48.846383
2928109,Santa Maria da Vitória,BA,Cerrado,834,0.9094,24.590,21.48,0.427,-13.236084,-44.380558
1710904,Itapiratins,TO,Cerrado,833,0.6428,28.868,9.19,0.675,-8.310913,-48.009325
5007695,São Gabriel do Oeste,MS,Cerrado,831,0.5011,41.265,10.27,0.279,-19.191085,-54.522731
2608750,Lagoa Grande,PE,Caatinga,827,0.9839,39.535,42.85,0.086,-8.668598,-40.243449
1100189,Pimenta Bueno,RO,Amazônia,822,0.7199,23.379,6.20,0.525,-11.926948,-60.844061
2100402,Altamira do Maranhão,MA,Amazônia,821,0.9685,70.796,6.40,0.279,-4.098048,-45.488737
2210805,Simplício Mendes,PI,Caatinga,819,0.8873,39.617,51.71,0.866,-7.748789,-42.072379
2408003,Mossoró,RN,Caatinga,817,0.9562,17.162,25.46,0.250,-5.120508,-37.373436
2923001,Nova Viçosa,BA,Mata Atlântica,817,0.5183,49.083,8.02,0.442,-17.887204,-39.794013
2918100,Jeremoabo,BA,Caatinga,814,0.9543,41.908,15.50,0.100,-9.985006,-38.458071
2109007,Porto Franco,MA,Cerrado,814,0.6931,31.954,9.85,0.839,-6.335824,-47.152923
1501253,Bannach,PA,Amazônia,813,0.8340,30.820,9.25,1.051,-7.514178,-50.606346
1703909,Caseara,TO,Cerrado,812,0.9282,32.573,66.52,0.466,-9.256136,-49.853736
5214838,Nova Crixás,GO,Cerrado,809,0.8054,27.594,12.99,1.113,-14.082965,-50.565072
2111508,São Mateus do Maranhão,MA,Cerrado,807,0.9301,21.819,8.68,0.837,-3.994434,-44.529902
2303501,Cascavel,CE,Caatinga,806,0.8334,10.360,26.37,0.115,-4.168625,-38.297669
2702306,Coruripe,AL,Mata Atlântica,806,0.9139,58.656,41.29,0.710,-10.102756,-36.249179
3103504,Araguari,MG,Mata Atlântica,805,0.8819,10.712,17.34,0.532,-18.610866,-48.184806
2301703,Aurora,CE,Caatinga,801,0.9558,23.879,17.54,0.297,-6.983260,-39.013580
5007802,Selvíria,MS,Cerrado,797,0.8890,73.485,10.11,0.502,-20.336880,-51.708233
4306908,Encruzilhada do Sul,RS,Pampa,793,0.2162,11.417,4.98,0.420,-30.653119,-52.683682
3107307,Bocaiúva,MG,Cerrado,792,0.8089,7.601,33.83,0.496,-17.315488,-43.699600
3168002,Taiobeiras,MG,Mata Atlântica,792,0.7954,38.262,36.47,0.178,-15.823473,-42.014044
4311122,Jaquirana,RS,Mata Atlântica,790,0.1387,7.422,4.13,0.131,-28.985650,-50.350893
2307502,Lavras da Mangabeira,CE,Caatinga,789,0.9656,21.645,26.21,0.081,-6.778150,-39.043489
2205532,Jurema,PI,Caatinga,789,0.9187,36.708,30.84,0.241,-9.054770,-43.099260
3301900,Itaboraí,RJ,Mata Atlântica,788,0.9154,9.078,7.30,0.803,-22.712443,-42.861112
2311009,Poranga,CE,Caatinga,787,0.9938,24.510,20.07,0.016,-4.830885,-41.073533
1721208,Tocantinópolis,TO,Cerrado,784,0.8738,39.505,14.04,0.206,-6.276487,-47.558990
1720101,São Bento do Tocantins,TO,Cerrado,779,0.7259,33.894,9.85,0.469,-5.985114,-47.969471
5104542,Itanhangá,MT,Amazônia,779,0.4887,29.453,12.72,0.310,-12.087370,-56.912858
3142502,Monjolos,MG,Cerrado,779,0.9567,13.522,26.23,0.152,-18.430227,-43.984816
2612604,Santa Maria da Boa Vista,PE,Caatinga,775,0.9884,13.773,44.44,0.131,-8.624964,-39.879160
1303536,Presidente Figueiredo,AM,Amazônia,775,0.0756,15.931,1.36,1.809,-1.620061,-60.183822
2910776,Feira da Mata,BA,Cerrado,773,0.8964,25.504,27.42,0.346,-14.137162,-44.253526
2100873,Araguanã,MA,Amazônia,772,0.9630,52.182,3.05,0.842,-3.085436,-45.791178
2111789,Serrano do Maranhão,MA,Amazônia,771,0.7172,17.250,16.65,0.704,-1.793696,-45.003810
2921500,Monte Santo,BA,Caatinga,770,0.9075,12.226,15.79,0.496,-10.377857,-39.412424
4122206,Rio Branco do Sul,PR,Mata Atlântica,764,0.3589,9.874,5.03,0.804,-25.090481,-49.352707
5210406,Itaberaí,GO,Cerrado,764,0.9191,30.134,13.84,0.377,-16.086517,-49.927909
5221601,Uruaçu,GO,Cerrado,763,0.7854,25.192,17.56,1.037,-14.468819,-49.077966
1711100,Itaporã do Tocantins,TO,Amazônia,763,0.9069,40.640,8.61,0.285,-8.516622,-48.815890
1200013,Acrelândia,AC,Amazônia,763,0.6479,20.259,6.76,0.729,-9.941859,-66.901998
2311900,Saboeiro,CE,Caatinga,760,0.9695,57.322,34.74,0.123,-6.449979,-39.832809
2102374,Cachoeira Grande,MA,Cerrado,760,0.8441,21.969,23.86,0.344,-3.103141,-43.950986
1301100,Careiro,AM,Amazônia,759,0.1336,35.290,2.15,0.834,-3.622830,-60.169130
1501105,Bagre,PA,Amazônia,758,0.3844,18.947,2.92,1.437,-2.357014,-50.208774
2106672,Milagres do Maranhão,MA,Cerrado,756,0.9187,15.460,21.74,0.220,-3.476936,-42.796810
2109270,Presidente Sarney,MA,Amazônia,756,0.8512,43.211,8.08,0.457,-2.579940,-45.373086
1718402,Presidente Kennedy,TO,Cerrado,756,0.9781,43.109,21.34,0.015,-8.378764,-48.313157
2901304,Andaraí,BA,Caatinga,755,0.9664,27.993,41.50,0.069,-12.627127,-41.249021
2610905,Pesqueira,PE,Caatinga,753,0.8368,11.024,14.93,0.718,-8.394961,-36.752852
1700350,Aliança do Tocantins,TO,Cerrado,752,0.8226,39.713,19.12,1.251,-11.350630,-48.899984
2903805,Boa Vista do Tupim,BA,Caatinga,751,0.9505,8.344,21.29,0.221,-12.758996,-40.641464
3152006,Pompéu,MG,Cerrado,751,0.7902,28.462,16.66,0.424,-19.113680,-44.936036
2903508,Belo Campo,BA,Mata Atlântica,750,0.9854,24.199,35.34,0.162,-15.012290,-41.213557
2203701,Esperantina,PI,Caatinga,748,0.8751,23.146,15.43,0.362,-3.822607,-42.202991
5106109,Nossa Senhora do Livramento,MT,Cerrado,747,0.8818,18.443,11.21,1.024,-15.781536,-56.391252
2313203,Tamboril,CE,Caatinga,746,0.9654,29.462,62.46,0.092,-4.889447,-40.339482
2401008,Apodi,RN,Caatinga,745,0.8906,24.291,51.46,0.241,-5.554521,-37.834768
2923209,Oliveira dos Brejinhos,BA,Caatinga,744,0.8099,19.715,18.00,0.393,-12.285987,-42.719395
2503704,Cajazeiras,PB,Caatinga,742,0.9637,18.441,21.48,0.200,-6.916581,-38.557729
2302206,Beberibe,CE,Caatinga,741,0.8020,9.916,29.33,0.410,-4.392589,-38.112979
2101251,Bacabeira,MA,Amazônia,738,0.9350,18.143,15.49,0.242,-2.987209,-44.385246
2308708,Morada Nova,CE,Caatinga,736,0.9476,13.228,42.56,0.302,-4.981125,-38.438580
2313005,Solonópole,CE,Caatinga,736,0.9464,21.064,28.57,0.129,-5.774839,-39.018850
5000708,Anastácio,MS,Cerrado,732,0.3341,18.777,2.16,2.482,-20.640209,-55.822501
3523909,Itu,SP,Mata Atlântica,732,0.8817,21.550,14.37,0.265,-23.339830,-47.257241
4105201,Cerro Azul,PR,Mata Atlântica,730,0.5021,15.563,5.32,0.616,-24.881429,-49.302703
3134202,Ituiutaba,MG,Cerrado,729,0.8454,56.650,20.61,0.634,-18.901995,-49.585399
5002100,Bela Vista,MS,Cerrado,728,0.6270,12.630,4.56,2.047,-21.959548,-56.416088
4305108,Caxias do Sul,RS,Mata Atlântica,726,0.1144,9.217,3.77,0.536,-29.002432,-50.917480
1400506,São João da Baliza,RR,Amazônia,726,0.3951,20.871,4.20,0.655,0.812670,-59.915216
1303106,Nova Olinda do Norte,AM,Amazônia,724,0.0922,23.601,2.43,1.714,-3.762628,-58.693784
1200252,Epitaciolândia,AC,Amazônia,722,0.5149,13.749,4.39,0.847,-10.848606,-68.614328
2104677,Governador Nunes Freire,MA,Amazônia,721,0.8723,33.033,4.01,0.813,-2.080042,-45.818672
2304004,Coreaú,CE,Caatinga,719,0.9711,21.680,75.97,0.192,-3.670060,-40.731123
2104073,Feira Nova do Maranhão,MA,Cerrado,717,0.7427,28.068,7.77,0.442,-7.040591,-46.634968
1703107,Barrolândia,TO,Cerrado,716,0.9249,17.698,41.08,0.282,-9.868039,-48.814814
2914307,Iramaia,BA,Caatinga,716,0.9771,16.740,27.15,0.205,-13.468567,-40.874557
2308005,Massapê,CE,Caatinga,713,0.9808,15.720,77.77,0.067,-3.488000,-40.404013
5107909,Sinop,MT,Amazônia,712,0.7028,36.367,17.64,0.523,-11.667885,-55.495164
2205516,Juazeiro do Piauí,PI,Caatinga,709,0.9943,14.489,48.50,0.023,-4.897432,-41.551231
2210656,Sigefredo Pacheco,PI,Caatinga,709,0.9700,57.101,28.20,0.202,-4.913436,-41.762706
2308401,Missão Velha,CE,Caatinga,707,0.9229,17.729,17.58,0.228,-7.309500,-39.163417
2109239,Presidente Médici,MA,Amazônia,703,0.8935,41.219,3.27,0.854,-2.331018,-45.757480
1713304,Miranorte,TO,Cerrado,701,0.8578,32.334,34.65,0.306,-9.347971,-48.638278
2911303,Gentio do Ouro,BA,Caatinga,700,0.8866,23.014,26.74,0.146,-11.444273,-42.592591
3304557,Rio de Janeiro,RJ,Mata Atlântica,700,0.7542,5.735,8.47,0.414,-22.904408,-43.583722
5000906,Antônio João,MS,Cerrado,700,0.8057,8.399,6.28,0.479,-22.230029,-56.039931
2207751,Passagem Franca do Piauí,PI,Caatinga,700,0.9760,18.743,25.98,0.057,-5.857604,-42.399576
3117306,Conceição das Alagoas,MG,Cerrado,699,0.7913,42.302,16.31,0.947,-19.892933,-48.293824
1200435,Santa Rosa do Purus,AC,Amazônia,699,0.4737,19.361,4.80,0.910,-9.305012,-70.266217
1502756,Concórdia do Pará,PA,Amazônia,697,0.2474,11.187,3.37,2.625,-1.846670,-47.965081
2208007,Picos,PI,Caatinga,695,0.9829,14.156,55.65,0.272,-7.030414,-41.526021
1501451,Belterra,PA,Amazônia,695,0.2447,14.680,2.54,1.945,-3.118515,-54.929942
2612455,Santa Cruz,PE,Caatinga,693,0.9895,44.724,42.15,0.133,-8.298447,-40.325912
2401453,Baraúna,RN,Caatinga,689,0.8936,8.436,23.93,0.281,-5.127695,-37.642061
2209153,Santa Cruz dos Milagres,PI,Caatinga,689,0.9912,49.647,38.81,0.093,-6.006931,-41.923324
1508357,Vitória do Xingu,PA,Amazônia,688,0.6928,16.296,4.58,1.302,-3.092488,-51.977333
3539608,Planalto,SP,Mata Atlântica,687,0.9446,57.273,4.03,0.246,-21.005918,-50.008484
2300200,Acaraú,CE,Caatinga,685,0.8440,13.589,43.89,0.192,-2.990604,-40.082645
2313401,Tianguá,CE,Caatinga,683,0.9391,28.531,53.12,0.098,-3.716273,-41.004758
3137536,Lagoa Grande,MG,Cerrado,683,0.8762,58.483,18.28,0.324,-17.618358,-46.515991
3128600,Guarda-Mor,MG,Cerrado,682,0.8968,28.998,11.62,0.210,-17.764582,-47.157962
1708304,Goianorte,TO,Cerrado,679,0.7351,22.600,22.64,0.945,-8.905388,-48.953042
2106409,Mata Roma,MA,Cerrado,678,0.7855,36.617,14.05,0.307,-3.611321,-43.208666
2201408,Barro Duro,PI,Caatinga,675,0.9870,17.936,15.39,0.098,-5.792067,-42.505726
2614006,Serrita,PE,Caatinga,673,0.9513,32.150,40.35,0.112,-7.819533,-39.399330
5101852,Bom Jesus do Araguaia,MT,Cerrado,672,0.7102,36.693,13.71,0.842,-12.205288,-51.560794
1503002,Faro,PA,Amazônia,671,0.2561,41.529,3.38,0.816,-1.976418,-56.800853
2211100,União,PI,Cerrado,671,0.8902,33.805,12.69,0.367,-4.666743,-42.841138
2210003,São João do Piauí,PI,Caatinga,669,0.8881,16.039,29.71,0.308,-8.231328,-42.332966
5108055,Terra Nova do Norte,MT,Amazônia,668,0.8422,29.340,28.01,0.925,-10.562627,-54.946861
3204906,São Mateus,ES,Mata Atlântica,666,0.7014,10.512,9.93,0.204,-18.750527,-40.017420
4202503,Bom Jardim da Serra,SC,Mata Atlântica,665,0.0961,7.013,3.17,0.205,-28.387785,-49.645776
2919801,Macaúbas,BA,Caatinga,664,0.8383,25.797,16.84,0.181,-13.114692,-42.642371
3101003,Águas Vermelhas,MG,Mata Atlântica,664,0.8501,25.008,63.26,0.246,-15.640665,-41.534755
1200179,Capixaba,AC,Amazônia,664,0.4042,17.853,3.70,1.292,-10.428053,-67.887095
5108857,Nova Marilândia,MT,Amazônia,662,0.5246,21.288,9.86,1.463,-14.246694,-57.434442
2926004,Remanso,BA,Caatinga,661,0.8877,10.465,10.36,0.584,-9.695588,-42.270371
2206357,Milton Brandão,PI,Caatinga,661,0.9888,17.091,18.35,0.024,-4.668378,-41.485402
2313351,Tejuçuoca,CE,Caatinga,661,0.9854,23.701,72.64,0.134,-3.913357,-39.568507
1719004,Santa Tereza do Tocantins,TO,Cerrado,661,0.6621,15.230,17.65,0.506,-10.323482,-47.733856
1300680,Boa Vista do Ramos,AM,Amazônia,661,0.2159,12.983,2.64,1.358,-3.115861,-57.708900
1507508,São João do Araguaia,PA,Amazônia,661,0.8800,38.890,4.92,0.660,-5.441073,-48.790117
2930303,Serra Dourada,BA,Cerrado,660,0.7336,45.086,8.70,0.355,-12.815358,-43.784780
2306108,Irauçuba,CE,Caatinga,660,0.9811,15.556,74.95,0.096,-3.794846,-39.841547
5005806,Nioaque,MS,Cerrado,659,0.6209,5.677,6.42,0.506,-21.122402,-55.902618
2201960,Brasileira,PI,Caatinga,657,0.9238,22.689,21.14,0.106,-4.139509,-41.633562
2110039,Santa Luzia do Paruá,MA,Amazônia,656,0.9057,40.909,4.94,0.457,-2.494711,-45.749485
2303204,Caririaçu,CE,Caatinga,656,0.9637,22.664,21.23,0.064,-7.012097,-39.262751
4203253,Capão Alto,SC,Mata Atlântica,656,0.0421,8.110,3.91,0.359,-28.073127,-50.580624
2908705,Condeúba,BA,Caatinga,654,0.9604,57.216,29.47,0.161,-14.927326,-42.055543
5210109,Ipameri,GO,Cerrado,648,0.7063,15.007,12.51,0.482,-17.399206,-47.915095
5213707,Montes Claros de Goiás,GO,Cerrado,647,0.7705,48.784,25.50,0.498,-15.776677,-51.696290
3162500,São João del Rei,MG,Mata Atlântica,645,0.8293,10.008,10.14,1.307,-21.243273,-44.258146
3157005,Salinas,MG,Mata Atlântica,645,0.7516,11.585,49.91,0.740,-16.103743,-42.161364
1720259,São Salvador do Tocantins,TO,Cerrado,643,0.5428,16.238,8.44,1.560,-12.596494,-48.332871
2209302,Santa Luz,PI,Cerrado,642,0.7918,31.904,12.79,0.341,-8.984068,-44.159997
4200408,Água Doce,SC,Mata Atlântica,639,0.3473,10.118,5.31,0.207,-26.717795,-51.626938
5204409,Caiapônia,GO,Cerrado,638,0.7101,10.584,8.90,1.050,-17.008445,-51.872814
2107001,Montes Altos,MA,Cerrado,638,0.6651,23.171,9.04,0.861,-5.856219,-47.043263
2305605,Independência,CE,Caatinga,636,0.9737,19.980,63.97,0.071,-5.484752,-40.394637
2914703,Itaberaba,BA,Caatinga,635,0.9192,7.436,27.42,0.140,-12.449493,-40.274875
2907400,Catolândia,BA,Cerrado,635,0.9506,52.152,34.68,0.137,-12.274158,-44.636827
1702703,Aurora do Tocantins,TO,Cerrado,635,0.9023,10.752,16.92,0.840,-12.702715,-46.353562
5003488,Dois Irmãos do Buriti,MS,Cerrado,634,0.5583,39.245,6.16,0.923,-20.449141,-55.437472
3167202,Sete Lagoas,MG,Cerrado,634,0.8994,9.830,12.75,0.519,-19.444171,-44.266163
3132107,Itacarambi,MG,Cerrado,634,0.9517,34.354,20.16,0.283,-15.181253,-44.105049
5103601,Dom Aquino,MT,Cerrado,632,0.9599,32.042,28.81,0.142,-15.613469,-54.766691
5201306,Anicuns,GO,Cerrado,632,0.9159,37.475,17.31,0.261,-16.340477,-49.992470
1712009,Lajeado,TO,Cerrado,632,0.8876,15.476,20.53,0.105,-9.812442,-48.299435
2311702,Reriutaba,CE,Caatinga,631,0.9759,16.847,49.39,0.140,-4.117308,-40.590610
5006309,Paranaíba,MS,Cerrado,627,0.7050,22.987,9.81,1.576,-19.511852,-51.284110
3171030,Verdelândia,MG,Cerrado,626,0.9077,35.598,27.74,0.392,-15.530586,-43.642545
1707553,Fátima,TO,Cerrado,626,0.9032,21.270,18.29,0.254,-10.790240,-48.833340
4304507,Canguçu,RS,Pampa,625,0.2343,9.570,3.83,0.564,-31.128146,-52.559488
2105153,Igarapé do Meio,MA,Amazônia,623,0.9289,19.752,6.84,0.897,-3.655596,-45.121252
2102358,Buritirana,MA,Cerrado,623,0.6137,23.829,4.24,1.284,-5.548891,-47.079371
1502855,Curuá,PA,Amazônia,622,0.1527,15.198,1.56,2.118,-1.708498,-55.141174
2207553,Paquetá,PI,Caatinga,622,0.9862,12.084,57.93,0.016,-7.151463,-41.687479
5107040,Primavera do Leste,MT,Cerrado,622,0.8823,52.315,18.44,0.275,-14.952116,-54.311691
2605103,Custódia,PE,Caatinga,621,0.8986,21.508,12.49,0.592,-8.127442,-37.642716
1718709,Rio dos Bois,TO,Cerrado,621,0.8851,32.115,27.41,0.715,-9.268966,-48.504288
5107792,Santo Antônio do Leste,MT,Cerrado,621,0.7657,23.977,12.75,0.600,-14.619120,-53.481405
1200336,Mâncio Lima,AC,Amazônia,621,0.3251,17.425,3.45,0.857,-7.510594,-73.213726
1504307,Maracanã,PA,Amazônia,620,0.6248,11.164,10.94,0.637,-0.861538,-47.519909
2709202,Traipu,AL,Caatinga,618,0.9134,13.320,9.98,0.353,-9.862679,-36.997850
5215652,Palestina de Goiás,GO,Cerrado,617,0.6966,31.745,9.72,0.726,-16.747229,-51.404095
2309003,Mucambo,CE,Caatinga,613,0.9855,30.148,75.28,0.028,-3.899021,-40.757653
5000856,Angélica,MS,Mata Atlântica,612,0.8863,69.281,2.92,0.416,-22.069430,-53.810933
2208650,Queimada Nova,PI,Caatinga,611,0.9702,52.109,27.93,0.128,-8.498712,-41.379260
2107605,Palmeirândia,MA,Amazônia,610,0.8004,49.166,14.19,0.299,-2.732001,-45.065118
3146552,Pai Pedro,MG,Caatinga,606,0.8187,36.826,17.58,1.208,-15.442093,-43.169470
2911659,Guajeru,BA,Caatinga,605,0.9814,34.404,41.43,0.115,-14.569360,-41.950985
2200608,Angical do Piauí,PI,Caatinga,605,0.9783,26.183,19.61,0.065,-6.111648,-42.745228
2313906,Uruoca,CE,Caatinga,604,0.9847,35.099,69.32,0.062,-3.320889,-40.676651
3133402,Itapagipe,MG,Cerrado,602,0.9130,37.590,15.74,0.207,-19.791689,-49.370734
2111029,São João do Carú,MA,Amazônia,602,0.8800,33.632,4.42,1.264,-3.483314,-46.303916
2207702,Parnaíba,PI,Caatinga,601,0.8054,8.568,43.59,0.389,-2.960186,-41.755782
5002951,Chapadão do Sul,MS,Cerrado,600,0.7526,47.599,12.61,1.107,-19.006842,-52.685995
3135803,Jequitinhonha,MG,Mata Atlântica,600,0.7839,22.297,32.64,1.348,-16.353345,-41.174517
1502004,Cachoeira do Arari,PA,Amazônia,599,0.7179,15.119,7.23,1.105,-0.955113,-48.882976
3144656,Ninheira,MG,Mata Atlântica,598,0.8778,33.937,61.75,0.183,-15.372695,-41.659483
2100709,Anajatuba,MA,Amazônia,597,0.9518,23.514,21.14,0.363,-3.282169,-44.597090
1700707,Alvorada,TO,Cerrado,596,0.9649,27.462,48.47,0.188,-12.409604,-49.150890
2206605,Monte Alegre do Piauí,PI,Cerrado,595,0.9355,13.483,12.28,0.251,-9.605387,-45.066144
2103257,Cidelândia,MA,Amazônia,595,0.6893,24.366,5.88,0.800,-5.060629,-47.832561
2310951,Pires Ferreira,CE,Caatinga,594,0.9591,29.142,43.52,0.111,-4.261946,-40.614595
2927200,Ruy Barbosa,BA,Caatinga,594,0.9552,8.982,32.72,0.390,-12.239765,-40.597664
1501808,Breves,PA,Amazônia,594,0.0918,7.672,2.00,3.009,-1.352813,-50.402926
5008008,Terenos,MS,Cerrado,593,0.5839,11.572,5.61,1.546,-20.438403,-55.000667
5213772,Montividiu do Norte,GO,Cerrado,593,0.8814,33.133,25.33,0.554,-13.072294,-48.773568
2109403,Primeira Cruz,MA,Cerrado,592,0.8219,23.062,31.30,0.098,-2.865507,-43.337291
3132008,Itacambira,MG,Cerrado,591,0.9486,15.784,23.24,0.202,-17.059199,-43.378191
2105302,Imperatriz,MA,Cerrado,586,0.7496,15.252,10.49,0.581,-5.390475,-47.564937
4204806,Curitibanos,SC,Mata Atlântica,586,0.1459,16.163,3.95,1.187,-27.268938,-50.604279
5204508,Caldas Novas,GO,Cerrado,586,0.9552,37.613,13.32,0.243,-17.744064,-48.628705
1302553,Manaquiri,AM,Amazônia,585,0.1609,51.860,2.14,1.051,-3.608078,-60.474324
3538709,Piracicaba,SP,Mata Atlântica,585,0.9801,44.577,24.60,0.139,-22.721546,-47.678686
5103304,Comodoro,MT,Amazônia,584,0.5459,10.649,8.94,0.534,-13.458183,-59.870339
5101704,Barra do Bugres,MT,Cerrado,583,0.6788,25.246,4.24,1.399,-15.161991,-57.102283
5102686,Campos de Júlio,MT,Cerrado,581,0.6620,40.710,9.73,0.586,-13.446190,-59.192850
2108702,Pio XII,MA,Amazônia,580,0.8899,29.170,5.57,0.614,-3.832657,-45.080813
1506302,Salvaterra,PA,Amazônia,579,0.8272,18.998,7.82,0.307,-0.815499,-48.634073
5106182,Nova Lacerda,MT,Amazônia,578,0.8306,16.302,11.45,0.450,-14.471373,-59.795957
2516201,Sousa,PB,Caatinga,578,0.9603,17.599,43.48,0.177,-6.757868,-38.220802
2303931,Choró,CE,Caatinga,578,0.9725,15.373,68.87,0.122,-4.765452,-39.191564
2307700,Maranguape,CE,Caatinga,576,0.9600,16.641,81.43,0.013,-4.027765,-38.827999
4216800,São José do Cerrito,SC,Mata Atlântica,576,0.1150,19.718,5.18,0.708,-27.588038,-50.662952
5002407,Caarapó,MS,Mata Atlântica,574,0.8644,27.193,6.96,1.054,-22.584997,-54.836084
2922003,Mucuri,BA,Mata Atlântica,574,0.5008,22.038,12.46,1.221,-17.988239,-39.932212
2102556,Campestre do Maranhão,MA,Cerrado,570,0.8356,40.164,12.37,1.018,-6.170696,-47.279124
2920403,Manoel Vitorino,BA,Caatinga,568,0.9791,14.363,27.22,0.199,-14.042720,-40.567115
5002159,Bodoquena,MS,Cerrado,568,0.7554,10.371,5.72,0.241,-20.638103,-56.681618
3138807,Luz,MG,Cerrado,568,0.9341,15.605,11.58,0.267,-19.829566,-45.740473
2302701,Campos Sales,CE,Caatinga,567,0.9806,55.963,28.35,0.074,-6.970186,-40.265786
5001508,Bandeirantes,MS,Cerrado,566,0.6943,27.188,11.99,2.358,-19.807594,-54.309419
1303957,São Sebastião do Uatumã,AM,Amazônia,566,0.3127,29.849,2.89,0.524,-2.454496,-58.002936
3136405,Joaquim Felício,MG,Cerrado,566,0.9505,12.149,55.85,0.450,-17.681515,-44.161884
1503804,Jacundá,PA,Amazônia,564,0.5605,31.481,5.03,3.006,-4.581094,-49.207216
2101731,Belágua,MA,Cerrado,563,0.7543,22.985,23.35,0.457,-3.104344,-43.435058
2306504,Itapiúna,CE,Caatinga,563,0.9836,16.624,73.96,0.004,-4.575292,-38.940682
2913002,Ibitiara,BA,Caatinga,562,0.9582,17.920,31.48,0.094,-12.540741,-42.246762
4117602,Palmas,PR,Mata Atlântica,561,0.3686,7.852,4.89,0.483,-26.495918,-51.750384
2932606,Urandi,BA,Cerrado,561,0.8937,11.368,25.45,0.254,-14.747419,-42.720634
2210201,São José do Piauí,PI,Caatinga,560,0.9888,33.348,63.92,0.059,-6.795735,-41.510246
3526902,Limeira,SP,Cerrado,559,0.9570,26.347,16.84,0.218,-22.638041,-47.404815
1716307,Pau D'Arco,TO,Amazônia,559,0.9353,33.154,15.01,0.189,-7.491787,-49.161131
1500909,Augusto Corrêa,PA,Amazônia,558,0.5256,14.637,7.17,1.131,-1.142362,-46.511885
2205409,Joaquim Pires,PI,Caatinga,557,0.8577,35.144,26.54,0.857,-3.515394,-42.084527
2301604,Assaré,CE,Caatinga,556,0.9689,42.651,17.98,0.081,-6.927580,-39.856082
2310803,Pereiro,CE,Caatinga,556,0.9956,12.547,54.16,0.029,-6.022491,-38.480173
2306009,Iracema,CE,Caatinga,555,0.9348,17.989,59.97,0.192,-5.823677,-38.330661
3203205,Linhares,ES,Mata Atlântica,555,0.8190,9.517,13.20,0.314,-19.361912,-40.127457
1713809,Palmeiras do Tocantins,TO,Cerrado,555,0.5635,19.123,5.65,1.859,-6.612137,-47.649167
2203305,Demerval Lobão,PI,Caatinga,554,0.9200,13.488,11.54,0.376,-5.331479,-42.665655
5006408,Pedro Gomes,MS,Cerrado,552,0.5626,16.953,7.29,0.865,-17.949370,-54.288234
2310308,Parambu,CE,Caatinga,552,0.9706,39.037,38.06,0.121,-6.258739,-40.648447
3160603,Santo Hipólito,MG,Cerrado,552,0.8770,29.314,26.55,0.175,-18.420696,-44.141134
5108402,Várzea Grande,MT,Cerrado,551,0.9666,17.352,9.36,0.524,-15.651660,-56.214107
2111722,Satubinha,MA,Amazônia,550,0.9635,39.719,6.70,0.655,-3.906231,-45.268468
2303808,Cedro,CE,Caatinga,550,0.9547,30.123,28.69,0.108,-6.560938,-39.091855
1304401,Urucurituba,AM,Amazônia,550,0.2058,19.813,2.90,1.195,-2.959847,-57.852617
3167103,Serro,MG,Mata Atlântica,550,0.8410,9.975,42.38,0.430,-18.491970,-43.382365
3152204,Porteirinha,MG,Caatinga,548,0.8382,11.321,17.29,0.835,-15.675129,-43.109344
1508084,Tucumã,PA,Amazônia,548,0.6936,19.437,5.09,1.504,-6.816337,-51.422405
2111672,São Roberto,MA,Cerrado,545,0.9386,84.127,8.65,0.191,-4.998330,-45.061809
1600550,Pracuúba,AP,Amazônia,545,0.7900,12.480,6.54,0.836,1.705473,-50.841371
2301208,Aracoiaba,CE,Caatinga,544,0.9848,15.393,64.77,0.011,-4.462806,-38.741813
2200103,Agricolândia,PI,Caatinga,543,0.9905,46.203,8.32,0.078,-5.757258,-42.681222
3169703,Turmalina,MG,Cerrado,542,0.7702,48.689,57.97,0.077,-17.348459,-42.676730
5204003,Cabeceiras,GO,Cerrado,542,0.9592,29.174,70.42,0.050,-15.699316,-47.012691
4104907,Castro,PR,Mata Atlântica,541,0.4404,14.035,6.40,0.180,-24.828178,-49.720310
3156502,Rubelita,MG,Mata Atlântica,539,0.9101,18.218,78.33,0.214,-16.358277,-42.263831
5217203,Piranhas,GO,Cerrado,539,0.9421,19.866,32.94,0.104,-16.495032,-51.850993
5211800,Jaraguá,GO,Cerrado,538,0.8768,20.136,27.26,0.374,-15.648455,-49.353754
1500107,Abaetetuba,PA,Amazônia,538,0.1067,11.502,3.16,2.297,-1.764690,-48.777434
2902807,Barra da Estiva,BA,Caatinga,537,0.9408,24.149,30.93,0.282,-13.683285,-40.999978
1503309,Igarapé-Miri,PA,Amazônia,536,0.2465,12.002,3.18,2.198,-2.214097,-49.145001
1101500,Seringueiras,RO,Amazônia,534,0.7874,19.063,8.19,0.932,-11.955688,-63.166072
3144003,Mutum,MG,Mata Atlântica,534,0.8975,17.178,9.48,0.317,-19.991439,-41.423187
1707652,Figueirópolis,TO,Cerrado,533,0.8210,25.269,23.95,0.527,-12.250800,-49.292058
2103158,Centro do Guilherme,MA,Amazônia,533,0.8825,15.111,2.68,0.923,-2.365572,-46.107720
3103405,Araçuaí,MG,Mata Atlântica,533,0.8667,25.192,30.20,0.527,-16.934604,-41.955114
5204706,Campinorte,GO,Cerrado,533,0.8477,27.932,11.77,1.037,-14.009239,-48.969783
2917334,Iuiu,BA,Cerrado,533,0.8742,25.071,26.85,0.227,-14.444639,-43.550495
2918001,Jequié,BA,Mata Atlântica,531,0.8238,9.001,15.73,0.207,-13.846058,-40.132364
1716703,Colméia,TO,Amazônia,531,0.8425,23.013,15.62,0.560,-8.844655,-48.771558
3136959,Juvenília,MG,Cerrado,531,0.8614,66.330,12.56,0.231,-14.382224,-43.944497
2103901,Duque Bacelar,MA,Cerrado,529,0.9635,33.803,10.49,0.147,-4.118540,-42.956676
2312700,Senador Pompeu,CE,Caatinga,528,0.9027,20.807,39.03,0.205,-5.593832,-39.412857
5207535,Faina,GO,Cerrado,528,0.5978,9.163,8.43,0.642,-15.473510,-50.347223
3500709,Agudos,SP,Cerrado,528,0.9271,34.516,8.17,0.150,-22.591905,-49.060316
2207900,Pedro II,PI,Caatinga,527,0.9659,14.526,38.45,0.098,-4.439119,-41.478465
1600535,Porto Grande,AP,Amazônia,527,0.4418,7.736,5.12,1.311,0.631766,-51.512080
2207934,Pedro Laurentino,PI,Caatinga,526,0.9517,17.761,31.51,0.144,-8.101559,-42.284894
4100202,Adrianópolis,PR,Mata Atlântica,525,0.5238,10.242,4.74,1.297,-24.750258,-48.828361
5106828,Porto Esperidião,MT,Amazônia,525,0.4523,19.132,2.73,3.805,-16.039347,-59.057634
3166808,Serra do Salitre,MG,Cerrado,525,0.8258,15.782,11.96,0.545,-19.167156,-46.636239
3540606,Porto Feliz,SP,Mata Atlântica,525,0.9569,44.373,24.15,0.296,-23.193306,-47.514539
2105500,João Lisboa,MA,Amazônia,525,0.6945,35.831,5.94,0.961,-5.289522,-47.203384
5100508,Alto Paraguai,MT,Cerrado,524,0.9199,35.974,17.39,0.604,-14.655389,-56.593956
2105104,Icatu,MA,Amazônia,523,0.7195,24.724,23.83,0.150,-2.694808,-43.908594
2414407,Touros,RN,Caatinga,523,0.8995,24.983,42.44,0.573,-5.271290,-35.616110
2210706,Simões,PI,Caatinga,521,0.9625,27.946,19.48,0.283,-7.685399,-40.730567
5003702,Dourados,MS,Cerrado,521,0.7887,42.362,6.16,0.816,-22.215216,-54.843916
2102903,Carutapera,MA,Amazônia,520,0.6155,39.057,5.07,0.339,-1.415985,-46.050676
2906907,Caravelas,BA,Mata Atlântica,520,0.7427,42.072,31.49,0.849,-17.584828,-39.868159
2314003,Várzea Alegre,CE,Caatinga,520,0.9679,24.056,25.32,0.208,-6.800078,-39.307008
3529005,Marília,SP,Mata Atlântica,520,0.9173,12.661,6.71,1.222,-22.277097,-49.976353
2201002,Arraial,PI,Caatinga,520,0.9817,17.441,44.41,0.084,-6.597407,-42.461622
1502152,Canaã dos Carajás,PA,Amazônia,519,0.9092,35.991,19.52,1.039,-6.560537,-49.812448
1507458,São Geraldo do Araguaia,PA,Amazônia,519,0.9417,14.860,5.94,0.322,-6.219735,-48.645575
2305506,Iguatu,CE,Caatinga,518,0.9313,18.514,33.55,0.179,-6.379211,-39.293410
5209705,Hidrolândia,GO,Cerrado,518,0.8919,17.797,22.14,0.370,-16.994234,-49.247040
3152131,Ponto Chique,MG,Cerrado,518,0.9509,34.444,95.55,0.093,-16.540901,-45.068434
3127107,Frutal,MG,Cerrado,517,0.7976,30.017,10.94,0.845,-20.007659,-49.055738
1504406,Marapanim,PA,Amazônia,516,0.4362,14.173,8.88,0.960,-0.852100,-47.720476
3143104,Monte Carmelo,MG,Cerrado,516,0.8559,11.402,33.13,0.572,-18.675076,-47.486177
2206209,Miguel Alves,PI,Cerrado,515,0.8834,26.331,10.44,0.714,-4.204197,-42.841001
2105989,Lajeado Novo,MA,Cerrado,515,0.7917,22.113,11.63,0.261,-6.097872,-46.898137
2100436,Alto Alegre do Maranhão,MA,Cerrado,515,0.8895,29.774,6.32,0.250,-4.210686,-44.382401
5201108,Anápolis,GO,Cerrado,514,0.9642,24.706,15.90,0.190,-16.334060,-48.972227
2906709,Cândido Sales,BA,Mata Atlântica,514,0.9730,17.831,75.03,0.097,-15.348083,-41.273384
2308302,Milagres,CE,Caatinga,512,0.9451,46.416,23.69,0.148,-7.303194,-38.931249
2917409,Jacaraci,BA,Caatinga,510,0.9704,43.816,24.76,0.061,-14.756660,-42.305498
3305554,Seropédica,RJ,Mata Atlântica,509,0.9450,9.514,10.95,0.657,-22.751708,-43.715227
1505536,Parauapebas,PA,Amazônia,509,0.7815,11.844,8.58,0.790,-6.064786,-50.125583
2107357,Nova Olinda do Maranhão,MA,Amazônia,508,0.8514,21.008,3.73,0.700,-2.809765,-45.806423
2919959,Maetinga,BA,Caatinga,508,0.9884,30.938,29.72,0.054,-14.671616,-41.510338
2100154,Água Doce do Maranhão,MA,Cerrado,506,0.6030,26.100,40.92,0.711,-2.966030,-42.173699
2202406,Capitão de Campos,PI,Caatinga,505,0.9655,22.720,25.74,0.095,-4.518110,-41.877330
2201919,Bom Princípio do Piauí,PI,Caatinga,505,0.9531,24.793,56.80,0.092,-3.117477,-41.631103
3503208,Araraquara,SP,Cerrado,505,0.9459,33.591,11.49,0.122,-21.833161,-48.156150
2922102,Mundo Novo,BA,Caatinga,504,0.8847,8.703,24.27,0.083,-11.927545,-40.557263
3139300,Manga,MG,Caatinga,504,0.9441,29.198,37.57,0.282,-14.649881,-44.018087
2303659,Catunda,CE,Caatinga,503,0.9660,33.680,69.58,0.297,-4.668292,-40.155904
2921450,Mirante,BA,Caatinga,503,0.9833,14.489,20.82,0.274,-14.156802,-40.798913
2102507,Cajari,MA,Amazônia,503,0.9229,16.440,6.47,0.354,-3.403293,-45.041975
2104701,Graça Aranha,MA,Cerrado,503,0.9178,76.159,10.70,0.293,-5.429949,-44.292793
2111573,São Pedro dos Crentes,MA,Cerrado,503,0.7842,16.556,12.35,0.467,-6.849153,-46.633636
2205805,Luzilândia,PI,Caatinga,501,0.9225,23.535,22.02,0.400,-3.602997,-42.367533
2309409,Novo Oriente,CE,Caatinga,501,0.9818,24.426,43.67,0.101,-5.601693,-40.778651
3158508,Santana de Pirapama,MG,Cerrado,501,0.9345,11.680,18.26,0.429,-18.836287,-43.872871
3105103,Bambuí,MG,Cerrado,501,0.9169,24.100,14.40,0.259,-20.145665,-46.026692
3157609,Santa Fé de Minas,MG,Cerrado,501,0.8404,18.762,35.14,0.463,-16.677198,-45.453543
2301901,Barbalha,CE,Caatinga,499,0.9806,19.150,16.64,0.039,-7.322701,-39.304680
2312403,São Gonçalo do Amarante,CE,Caatinga,497,0.9629,12.242,41.65,0.055,-3.608990,-39.012385
3129509,Ibiá,MG,Cerrado,497,0.8751,16.200,11.95,0.664,-19.586089,-46.597939
3503000,Aramina,SP,Cerrado,497,0.9761,82.607,28.17,0.103,-20.121802,-47.833895
2926806,Rio do Antônio,BA,Caatinga,497,0.9836,19.503,35.07,0.245,-14.268100,-42.089225
3522406,Itapeva,SP,Cerrado,496,0.2902,9.210,4.43,1.181,-23.933420,-48.888961
2210383,São Miguel da Baixa Grande,PI,Caatinga,496,0.9759,11.735,30.05,0.166,-5.852843,-42.275626
3522604,Itapira,SP,Mata Atlântica,495,0.8968,32.634,11.86,0.876,-22.430857,-46.791238
2200400,Altos,PI,Caatinga,495,0.8990,22.220,11.20,0.162,-5.025419,-42.486337
3161106,São Francisco,MG,Cerrado,495,0.8524,9.223,16.82,0.790,-15.877094,-44.889578
2308377,Miraíma,CE,Caatinga,494,0.9970,14.891,63.00,0.022,-3.554827,-39.854472
2311959,Salitre,CE,Caatinga,494,0.9662,34.993,46.48,0.508,-7.188635,-40.362138
1300631,Beruri,AM,Amazônia,493,0.1067,28.785,2.07,1.939,-4.506190,-61.890833
5215702,Palmeiras de Goiás,GO,Cerrado,493,0.9141,23.255,48.00,1.158,-16.717225,-49.851647
3146107,Ouro Preto,MG,Mata Atlântica,492,0.6211,6.180,11.93,0.569,-20.403916,-43.606164
3130655,Indaiabira,MG,Cerrado,491,0.7798,26.900,18.21,0.522,-15.557678,-42.141822
2907558,Caturama,BA,Caatinga,489,0.9686,81.379,19.10,0.248,-13.227929,-42.341268
2206902,Novo Oriente do Piauí,PI,Caatinga,488,0.9723,35.533,33.14,0.086,-6.467148,-41.973447
3134004,Itinga,MG,Mata Atlântica,488,0.9075,29.680,41.64,0.376,-16.609819,-41.798182
2104305,Godofredo Viana,MA,Amazônia,486,0.7632,34.863,7.02,0.538,-1.476723,-45.809929
2202505,Caracol,PI,Caatinga,486,0.9546,46.820,41.47,0.244,-9.247608,-43.303531
1100452,Buritis,RO,Amazônia,486,0.8214,20.785,3.76,1.006,-9.934152,-64.097226
3539301,Pirassununga,SP,Mata Atlântica,486,0.9291,87.109,9.88,0.264,-21.975203,-47.381342
2606903,Iguaracy,PE,Caatinga,485,0.9430,16.456,20.73,0.237,-7.846517,-37.409673
2312007,Santana do Acaraú,CE,Caatinga,485,0.9595,14.152,78.57,0.055,-3.444623,-40.193114
1712801,Maurilândia do Tocantins,TO,Cerrado,485,0.8796,19.558,26.50,5.502,-6.026319,-47.599530
4106803,Cruz Machado,PR,Mata Atlântica,484,0.0495,14.540,5.49,1.454,-25.911207,-51.202647
5208301,Divinópolis de Goiás,GO,Cerrado,484,0.9055,13.992,11.24,0.581,-13.253926,-46.483333
2105906,Lago Verde,MA,Amazônia,483,0.9138,20.851,5.92,0.524,-3.972383,-44.845554
2300754,Amontada,CE,Caatinga,482,0.9375,15.884,52.01,0.198,-3.200077,-39.769853
2106375,Maranhãozinho,MA,Amazônia,481,0.9304,17.335,5.76,1.123,-2.481852,-45.979831
3138203,Lavras,MG,Mata Atlântica,481,0.9599,10.289,10.07,0.257,-21.287899,-45.050112
2306306,Itapajé,CE,Caatinga,479,0.9982,15.929,81.45,0.028,-3.725163,-39.581237
2931004,Tanhaçu,BA,Caatinga,479,0.9690,11.915,25.26,0.187,-14.140833,-41.250972
2313500,Trairi,CE,Caatinga,477,0.9462,14.813,34.69,0.110,-3.361480,-39.355456
2201606,Beneditinos,PI,Caatinga,476,0.9594,19.301,12.47,0.128,-5.489656,-42.386879
2602803,Buíque,PE,Caatinga,475,0.8870,9.582,12.01,0.767,-8.669880,-37.102229
2509701,Monteiro,PB,Caatinga,475,0.9058,11.316,16.33,0.213,-7.902036,-37.148005
1302603,Manaus,AM,Amazônia,475,0.0875,17.836,1.88,3.401,-2.889171,-59.848867
3100609,Água Boa,MG,Mata Atlântica,475,0.7781,15.040,13.35,0.332,-18.060932,-42.244655
1703206,Bernardo Sayão,TO,Amazônia,475,0.9354,43.394,20.73,0.099,-8.025836,-48.984776
2204808,Ipiranga do Piauí,PI,Caatinga,475,0.9757,28.038,57.79,0.037,-6.830922,-41.735753
3140852,Matias Cardoso,MG,Caatinga,474,0.8786,44.858,19.16,0.576,-14.920406,-43.812117
5002902,Cassilândia,MS,Cerrado,473,0.6992,9.628,6.35,1.771,-19.049674,-52.178241
1701309,Aragominas,TO,Amazônia,473,0.7149,57.051,4.18,0.457,-6.834641,-48.726899
2911709,Guanambi,BA,Caatinga,472,0.9259,9.850,19.44,0.435,-14.203115,-42.829767
1703826,Cachoeirinha,TO,Cerrado,472,0.8425,37.293,23.84,1.429,-6.116641,-47.814479
2304277,Ereré,CE,Caatinga,471,0.9688,20.236,71.36,0.191,-5.975085,-38.303169
5006200,Nova Andradina,MS,Cerrado,470,0.5425,25.784,3.98,1.100,-21.968471,-53.491604
2310506,Pedra Branca,CE,Caatinga,470,0.9710,52.180,55.23,0.083,-5.505235,-39.829506
2904506,Brotas de Macaúbas,BA,Caatinga,469,0.9386,21.848,35.23,0.262,-12.164383,-42.360876
1504976,Nova Ipixuna,PA,Amazônia,469,0.6727,27.500,3.77,0.859,-5.011414,-49.238693
5007406,Rio Verde de Mato Grosso,MS,Cerrado,468,0.6528,10.663,6.75,1.658,-18.902311,-55.051624
2924306,Piatã,BA,Caatinga,468,0.8907,31.941,22.74,0.187,-13.006656,-41.883006
3125705,Felixlândia,MG,Cerrado,468,0.8389,30.954,20.61,0.806,-18.652490,-45.021994
2211704,Wall Ferraz,PI,Caatinga,468,0.9912,7.161,41.06,0.041,-7.278354,-41.919577
3549508,São José da Bela Vista,SP,Cerrado,468,0.9900,51.754,14.06,0.015,-20.557432,-47.660517
4119905,Ponta Grossa,PR,Mata Atlântica,467,0.5483,9.835,6.81,0.300,-25.141840,-50.061608
3509502,Campinas,SP,Mata Atlântica,467,0.9333,9.149,14.94,0.399,-22.893549,-47.087812
3170529,Urucuia,MG,Cerrado,467,0.9383,33.791,33.67,0.240,-16.085023,-45.719027
5205513,Cocalzinho de Goiás,GO,Cerrado,467,0.8311,17.988,16.77,0.813,-15.669181,-48.559620
2911907,Iaçu,BA,Caatinga,466,0.9582,26.200,18.77,0.282,-12.856775,-40.146053
3111606,Campos Gerais,MG,Mata Atlântica,464,0.9410,9.409,10.83,0.751,-21.265050,-45.719909
,SÃO LUIZ,RR,Amazônia,461,0.5100,16.339,5.19,0.718,0.836319,-60.137108
4211892,Painel,SC,Mata Atlântica,461,0.0925,8.563,4.02,0.426,-28.006952,-50.095396
1502772,Curionópolis,PA,Amazônia,460,0.9245,28.533,10.09,0.253,-6.267860,-49.598018
3106655,Berizal,MG,Mata Atlântica,460,0.8985,30.129,29.50,0.169,-15.675150,-41.795096
2919504,Livramento de Nossa Senhora,BA,Caatinga,457,0.8931,13.796,23.59,0.113,-13.857520,-42.018644
2917508,Jacobina,BA,Caatinga,457,0.8702,8.458,14.25,0.117,-11.174229,-40.530962
2917201,Ituaçu,BA,Caatinga,457,0.9189,22.403,25.64,0.075,-13.825119,-41.386927
3153400,Presidente Olegário,MG,Cerrado,457,0.8153,13.602,13.96,0.930,-18.270903,-46.384009
2104503,Governador Archer,MA,Cerrado,455,0.7748,32.183,8.36,0.795,-5.010885,-44.209717
2614600,Tabira,PE,Caatinga,455,0.9105,22.085,24.46,0.495,-7.578900,-37.519545
2111250,São José dos Basílios,MA,Cerrado,455,0.9031,41.973,5.35,0.306,-5.012772,-44.568452
2920304,Malhada de Pedras,BA,Caatinga,455,0.9840,107.908,17.02,0.203,-14.339509,-41.831922
2205540,Lagoinha do Piauí,PI,Caatinga,455,0.9756,56.439,12.96,0.136,-5.812027,-42.620926
5217104,Piracanjuba,GO,Cerrado,454,0.9634,21.862,18.49,0.167,-17.332429,-49.016239
2309458,Ocara,CE,Caatinga,453,0.9725,9.098,64.68,0.045,-4.512917,-38.492592
5211206,Itapuranga,GO,Cerrado,453,0.9165,20.774,16.19,0.602,-15.602444,-49.932452
4111803,Jacarezinho,PR,Mata Atlântica,452,0.9647,34.892,14.97,0.235,-23.079092,-49.972812
2300408,Aiuaba,CE,Caatinga,451,0.9720,46.647,26.06,0.163,-6.608740,-40.238680
5203203,Barro Alto,GO,Cerrado,449,0.6076,12.267,9.16,1.481,-14.984911,-48.895391
2211407,Várzea Grande,PI,Caatinga,449,0.9587,24.583,23.63,0.111,-6.527285,-42.221792
1720978,Talismã,TO,Cerrado,449,0.8278,35.378,27.51,0.451,-12.681429,-48.931681
2513703,Santa Rita,PB,Mata Atlântica,448,0.8001,24.267,17.65,0.481,-7.069199,-34.992109
2111763,Senador La Rocque,MA,Amazônia,448,0.7004,41.509,4.52,0.561,-5.415031,-47.223189
2706703,Penedo,AL,Mata Atlântica,448,0.9454,32.857,11.93,0.207,-10.202024,-36.458278
1600279,Laranjal do Jari,AP,Amazônia,448,0.5229,18.007,4.21,0.913,-0.590704,-52.258653
5005608,Miranda,MS,Cerrado,448,0.6866,28.082,5.47,1.364,-20.203263,-56.467365
,AÇU,RN,Caatinga,446,0.8376,7.376,35.44,0.445,-5.504358,-37.025849
1505635,Piçarra,PA,Amazônia,446,0.8212,19.616,6.93,0.688,-6.543159,-48.989629
2109601,Rosário,MA,Amazônia,446,0.8525,22.200,15.46,0.156,-2.998488,-44.202160
3168101,Tapira,MG,Cerrado,445,0.8804,21.901,21.82,0.472,-19.941580,-46.927092
5219357,Santa Isabel,GO,Cerrado,445,0.7506,40.478,10.19,0.462,-15.272668,-49.454457
1200450,Senador Guiomard,AC,Amazônia,444,0.7414,11.741,7.67,0.954,-9.909534,-67.368379
3159803,Santa Vitória,MG,Mata Atlântica,442,0.6242,28.522,7.43,2.613,-19.026554,-50.356159
3501905,Amparo,SP,Mata Atlântica,442,0.9215,37.504,10.61,0.121,-22.651701,-46.805229
1713700,Monte Santo do Tocantins,TO,Cerrado,442,0.7647,16.497,17.16,1.007,-10.015523,-49.111564
2100105,Afonso Cunha,MA,Cerrado,441,0.9791,18.982,12.02,0.068,-4.198025,-43.276991
3161304,São Francisco de Sales,MG,Cerrado,441,0.8374,102.476,11.78,0.587,-19.812067,-49.837649
2305654,Ipaporanga,CE,Caatinga,441,0.9612,32.803,40.78,0.228,-4.910255,-40.825091
3107406,Bom Despacho,MG,Cerrado,441,0.8810,16.951,15.00,0.714,-19.698093,-45.332995
1300839,Caapiranga,AM,Amazônia,441,0.1506,20.580,2.99,1.524,-3.257596,-61.337257
2112852,Vila Nova dos Martírios,MA,Amazônia,440,0.8401,17.916,6.64,1.105,-5.056380,-48.089057
2103802,Dom Pedro,MA,Cerrado,440,0.8628,37.464,5.77,0.695,-5.007944,-44.384839
4102901,Bituruna,PR,Mata Atlântica,440,0.0534,10.716,4.85,0.747,-26.164954,-51.508462
3135605,Jequitaí,MG,Cerrado,440,0.8595,19.258,20.20,0.283,-17.210267,-44.449341
2930006,Sebastião Laranjeiras,BA,Caatinga,437,0.8206,13.311,15.27,0.722,-14.613487,-43.039408
5102678,Campo Verde,MT,Cerrado,437,0.8768,50.575,13.82,0.324,-15.184720,-54.861005
5219753,Santo Antônio do Descoberto,GO,Cerrado,437,0.8899,13.721,20.61,0.692,-16.021212,-48.297712
2610806,Pedra,PE,Caatinga,436,0.8587,8.413,10.62,0.852,-8.615587,-36.911451
5105903,Nobres,MT,Cerrado,436,0.7851,19.315,7.15,1.715,-14.535073,-56.004872
2309300,Nova Russas,CE,Caatinga,435,0.9882,28.694,57.08,0.051,-4.684036,-40.526428
2504405,Conceição,PB,Caatinga,435,0.9228,32.434,15.22,0.277,-7.478165,-38.529335
2921906,Mucugê,BA,Caatinga,435,0.7237,21.371,14.27,3.012,-13.056560,-41.448659
3136009,Joaíma,MG,Mata Atlântica,435,0.8146,14.734,23.25,0.395,-16.785334,-41.035450
4203600,Campos Novos,SC,Mata Atlântica,434,0.1666,11.409,5.45,0.281,-27.404150,-51.253722
2104552,Governador Edison Lobão,MA,Cerrado,433,0.8058,27.601,13.33,0.667,-5.724332,-47.382090
1304005,Silves,AM,Amazônia,432,0.1156,32.076,1.82,1.398,-2.884948,-58.389105
2929909,Seabra,BA,Caatinga,432,0.9591,13.600,46.51,0.251,-12.432462,-41.914064
5218391,Professor Jamil,GO,Cerrado,432,0.9325,12.688,19.78,0.156,-17.371488,-49.243098
2607505,Itaíba,PE,Caatinga,431,0.9374,9.593,18.71,0.213,-8.958481,-37.313038
2614105,Sertânia,PE,Caatinga,430,0.8794,23.987,11.24,0.846,-8.136857,-37.344485
