latitude,longitude,data_pas,satelite,estado,municipio,bioma,numero_dias_sem_chuva,precipitacao_mm,risco_fogo,frp_mw
-15.214500,-60.173901,2025-01-01 00:38:00,METOP-B,MATO GROSSO,VILA BELA DA SANTÍSSIMA TRINDADE,Amazônia,4,0.72,0.650,
-10.095290,-39.632700,2025-01-01 15:37:00,NOAA-21,BAHIA,UAUÁ,Caatinga,8,0.00,1.000,5.80
-12.466660,-42.233100,2025-01-01 15:35:00,NOAA-21,BAHIA,IBITIARA,Caatinga,0,0.00,0.710,9.00
-7.659500,-35.138599,2025-01-01 23:33:00,METOP-C,PERNAMBUCO,ALIANÇA,Mata Atlântica,28,0.00,1.000,
-15.242100,-60.212399,2025-01-01 01:36:00,METOP-C,MATO GROSSO,VILA BELA DA SANTÍSSIMA TRINDADE,Amazônia,3,2.00,0.500,
-12.309920,-37.883910,2025-01-01 03:00:00,NOAA-21,BAHIA,ENTRE RIOS,Mata Atlântica,,0.00,0.890,2.00
-5.105170,-38.025620,2025-01-01 03:21:00,NPP-375D,CEARÁ,LIMOEIRO DO NORTE,Caatinga,5,0.00,1.000,2.20
-10.606200,-44.332340,2025-01-01 03:25:00,NPP-375D,BAHIA,SANTA RITA DE CÁSSIA,Cerrado,0,0.00,0.000,2.80
-11.953260,-38.969710,2025-01-01 03:46:00,NOAA-20,BAHIA,SANTA BÁRBARA,Caatinga,25,0.00,1.000,0.40
-3.976360,-40.854130,2025-01-01 03:46:00,NOAA-20,CEARÁ,SÃO BENEDITO,Caatinga,17,0.00,0.810,1.90
-12.876890,-38.418400,2025-01-01 03:46:00,NOAA-20,BAHIA,SALVADOR,Mata Atlântica,22,0.02,,0.90
-13.675920,-41.764270,2025-01-01 03:46:00,NOAA-20,BAHIA,LIVRAMENTO DE NOSSA SENHORA,Caatinga,0,0.00,0.320,0.70
-19.843410,-57.460980,2025-01-01 04:44:00,NOAA-21,MATO GROSSO DO SUL,CORUMBÁ,Pantanal,6,1.66,0.550,1.10
-15.266790,-60.205900,2025-01-01 04:42:00,NOAA-21,MATO GROSSO,VILA BELA DA SANTÍSSIMA TRINDADE,Amazônia,3,1.83,0.600,4.50
-1.686850,-45.875920,2025-01-01 04:38:00,NOAA-21,MARANHÃO,AMAPÁ DO MARANHÃO,Amazônia,1,0.10,0.540,1.20
-22.474020,-47.442900,2025-01-01 05:08:00,NPP-375D,SÃO PAULO,CORDEIRÓPOLIS,Mata Atlântica,2,0.85,0.470,12.40
-15.255580,-60.210020,2025-01-01 05:08:00,NPP-375D,MATO GROSSO,VILA BELA DA SANTÍSSIMA TRINDADE,Amazônia,3,2.01,0.620,0.80
-19.720620,-55.364720,2025-01-01 05:31:00,NOAA-20,MATO GROSSO DO SUL,AQUIDAUANA,Pantanal,7,0.00,0.210,1.90
-11.561750,-42.426960,2025-01-01 12:14:00,TERRA_M-T,BAHIA,GENTIO DO OURO,Caatinga,0,0.00,0.450,9.00
-4.264990,-42.259240,2025-01-01 16:02:00,NPP-375,PIAUÍ,BARRAS,Caatinga,2,0.40,0.830,5.20
-3.704590,-43.427310,2025-01-01 16:02:00,NPP-375,MARANHÃO,CHAPADINHA,Cerrado,0,0.50,0.040,19.20
-8.084900,-35.180130,2025-01-01 16:00:00,NPP-375,PERNAMBUCO,MORENO,Mata Atlântica,26,0.00,1.000,15.80
-13.153330,-39.317840,2025-01-01 15:58:00,NPP-375,BAHIA,LAJE,Mata Atlântica,11,0.00,1.000,8.50
-14.090010,-39.107720,2025-01-01 15:58:00,NPP-375,BAHIA,CAMAMU,Mata Atlântica,17,0.00,0.700,3.20
-8.420790,-36.887200,2025-01-01 16:00:00,NPP-375,PERNAMBUCO,PESQUEIRA,Caatinga,4,0.00,1.000,14.10
-5.176440,-40.428940,2025-01-01 16:02:00,NPP-375,CEARÁ,CRATEÚS,Caatinga,25,0.00,1.000,3.70
-14.946210,-39.527710,2025-01-01 15:58:00,NPP-375,BAHIA,ITAPÉ,Mata Atlântica,16,0.00,1.000,4.50
-5.380760,-46.230460,2025-01-01 16:02:00,NPP-375,MARANHÃO,GRAJAÚ,Amazônia,0,0.00,0.270,45.30
-13.105250,-40.218940,2025-01-01 15:58:00,NPP-375,BAHIA,PLANALTINO,Caatinga,11,0.00,1.000,15.50
-11.365290,-37.368060,2025-01-01 16:00:00,NPP-375,SERGIPE,ESTÂNCIA,Mata Atlântica,,0.00,0.990,8.10
-10.915730,-44.522170,2025-01-01 16:00:00,NPP-375,BAHIA,SANTA RITA DE CÁSSIA,Cerrado,0,0.00,0.130,7.60
-1.648390,-45.856200,2025-01-01 16:02:00,NPP-375,MARANHÃO,AMAPÁ DO MARANHÃO,Amazônia,0,0.00,0.350,5.50
-13.104610,-40.214410,2025-01-01 15:58:00,NPP-375,BAHIA,PLANALTINO,Caatinga,11,0.00,1.000,12.50
-2.068290,-45.380140,2025-01-01 16:02:00,NPP-375,MARANHÃO,TURILÂNDIA,Amazônia,3,0.00,0.840,13.80
-8.625690,-36.857300,2025-01-01 16:00:00,NPP-375,PERNAMBUCO,VENTUROSA,Caatinga,4,0.20,1.000,3.20
-4.291330,-43.919210,2025-01-01 16:02:00,NPP-375,MARANHÃO,TIMBIRAS,Cerrado,0,4.66,0.090,5.20
-3.739210,-43.608470,2025-01-01 16:02:00,NPP-375,MARANHÃO,CHAPADINHA,Cerrado,0,0.49,0.030,3.50
-7.766720,-37.926400,2025-01-01 15:35:00,NOAA-21,PERNAMBUCO,QUIXABA,Caatinga,4,0.00,1.000,24.50
-13.146210,-39.317040,2025-01-01 15:35:00,NOAA-21,BAHIA,LAJE,Mata Atlântica,11,0.00,1.000,4.50
-7.762830,-37.931260,2025-01-01 15:35:00,NOAA-21,PERNAMBUCO,QUIXABA,Caatinga,4,0.00,1.000,15.30
-12.040320,-42.510290,2025-01-01 15:35:00,NOAA-21,BAHIA,BROTAS DE MACAÚBAS,Caatinga,4,1.55,0.170,5.40
-8.518890,-36.097900,2025-01-01 15:37:00,NOAA-21,PERNAMBUCO,ALTINHO,Mata Atlântica,24,0.00,1.000,7.00
-14.212050,-39.351830,2025-01-01 15:35:00,NOAA-21,BAHIA,MARAÚ,Mata Atlântica,16,0.00,0.690,3.40
-5.526550,-37.764150,2025-01-01 15:35:00,NOAA-21,RIO GRANDE DO NORTE,APODI,Caatinga,9,0.00,1.000,9.00
-9.720170,-38.248990,2025-01-01 16:52:00,AQUA_M-T,BAHIA,SANTA BRÍGIDA,Caatinga,17,0.00,1.000,18.10
-6.123650,-43.606680,2025-01-01 16:54:00,AQUA_M-T,MARANHÃO,PASSAGEM FRANCA,Cerrado,1,0.00,0.720,38.40
-8.943810,-35.753990,2025-01-01 16:22:00,NOAA-20,ALAGOAS,COLÔNIA LEOPOLDINA,Mata Atlântica,4,0.00,0.960,6.10
-3.840110,-41.806290,2025-01-01 16:24:00,NOAA-20,PIAUÍ,PIRACURUCA,Caatinga,3,0.00,1.000,4.90
-1.786850,-45.144450,2025-01-01 16:26:00,NOAA-20,MARANHÃO,BACURI,Amazônia,3,0.10,0.780,15.20
-2.150620,-44.812770,2025-01-01 16:26:00,NOAA-20,MARANHÃO,CENTRAL DO MARANHÃO,Amazônia,,0.60,0.550,3.40
-1.688760,-45.595940,2025-01-01 16:26:00,NOAA-20,MARANHÃO,TURIAÇU,Amazônia,3,0.00,1.000,4.10
-10.797950,-37.454540,2025-01-01 16:22:00,NOAA-20,SERGIPE,CAMPO DO BRITO,Mata Atlântica,36,0.00,,3.20
-10.793770,-37.455290,2025-01-01 16:22:00,NOAA-20,SERGIPE,CAMPO DO BRITO,Mata Atlântica,36,0.00,1.000,3.00
-6.387200,-45.614060,2025-01-01 16:24:00,NOAA-20,MARANHÃO,FERNANDO FALCÃO,Cerrado,0,0.00,0.000,3.10
-1.753660,-45.037060,2025-01-01 16:26:00,NOAA-20,MARANHÃO,SERRANO DO MARANHÃO,Amazônia,,0.21,0.740,25.60
-3.979460,-40.969190,2025-01-01 16:24:00,NOAA-20,CEARÁ,IBIAPINA,Caatinga,17,0.00,1.000,6.50
-4.385850,-47.746420,2025-01-01 16:24:00,NOAA-20,PARÁ,DOM ELISEU,Amazônia,0,0.00,0.000,5.10
-3.979190,-42.421660,2025-01-01 16:24:00,NOAA-20,PIAUÍ,BARRAS,Caatinga,2,0.00,0.370,8.40
-11.446960,-39.507630,2025-01-01 16:22:00,NOAA-20,BAHIA,SÃO DOMINGOS,Caatinga,13,0.00,1.000,15.50
-12.304680,-37.886570,2025-01-01 16:22:00,NOAA-20,BAHIA,ENTRE RIOS,Mata Atlântica,,0.00,0.900,10.40
-8.144170,-35.256310,2025-01-01 16:22:00,NOAA-20,PERNAMBUCO,VITÓRIA DE SANTO ANTÃO,Mata Atlântica,26,0.00,1.000,6.40
-5.529090,-35.392830,2025-01-01 16:24:00,NOAA-20,RIO GRANDE DO NORTE,CEARÁ-MIRIM,Caatinga,,0.00,1.000,5.10
-2.146790,-44.809820,2025-01-01 16:26:00,NOAA-20,MARANHÃO,MIRINZAL,Amazônia,,0.68,0.540,5.20
-2.419590,-45.492270,2025-01-01 16:26:00,NOAA-20,MARANHÃO,SANTA HELENA,Amazônia,3,0.10,,3.20
-5.350520,-40.210680,2025-01-01 16:24:00,NOAA-20,CEARÁ,INDEPENDÊNCIA,Caatinga,25,0.00,1.000,6.80
-3.921360,-47.196150,2025-01-01 16:24:00,NOAA-20,PARÁ,ULIANÓPOLIS,Amazônia,0,8.05,0.020,11.50
-19.078990,-50.874530,2025-01-01 16:20:00,NOAA-20,GOIÁS,ITARUMÃ,Cerrado,0,1.80,0.200,8.00
-2.471740,-45.724790,2025-01-01 16:26:00,NOAA-20,MARANHÃO,SANTA LUZIA DO PARUÁ,Amazônia,0,0.50,1.000,2.70
-2.787610,-45.502100,2025-01-01 16:26:00,NOAA-20,MARANHÃO,SANTA HELENA,Amazônia,1,1.27,0.810,3.70
-1.604840,-45.915990,2025-01-01 16:26:00,NOAA-20,MARANHÃO,AMAPÁ DO MARANHÃO,Amazônia,2,0.20,0.760,2.80
-5.157120,-39.283490,2025-01-01 16:24:00,NOAA-20,CEARÁ,QUIXERAMOBIM,Caatinga,25,0.00,1.000,2.10
-6.945770,-38.283920,2025-01-01 16:24:00,NOAA-20,PARAÍBA,NAZAREZINHO,Caatinga,22,0.00,1.000,5.30
-12.684230,-39.867330,2025-01-01 16:22:00,NOAA-20,BAHIA,IAÇU,Caatinga,17,0.00,1.000,4.60
-13.103150,-40.936040,2025-01-01 16:22:00,NOAA-20,BAHIA,ITAETÉ,Caatinga,13,0.00,1.000,3.00
-9.001140,-36.500450,2025-01-01 16:22:00,NOAA-20,PERNAMBUCO,BREJÃO,Caatinga,8,0.00,1.000,5.10
-1.848460,-45.821820,2025-01-01 16:26:00,NOAA-20,MARANHÃO,GOVERNADOR NUNES FREIRE,Amazônia,2,0.41,0.660,2.60
-22.764100,-47.124250,2025-01-01 16:20:00,NOAA-20,SÃO PAULO,PAULÍNIA,Cerrado,3,0.55,0.270,5.00
-1.256780,-56.043000,2025-01-01 17:43:00,NPP-375,PARÁ,ORIXIMINÁ,Amazônia,0,2.67,0.030,4.80
4.372420,-60.697810,2025-01-01 17:45:00,NPP-375,RORAIMA,PACARAIMA,Amazônia,0,0.00,0.490,4.20
3.214610,-60.713280,2025-01-01 17:43:00,NPP-375,RORAIMA,BOA VISTA,Amazônia,0,0.00,0.850,2.60
-2.426200,-56.063720,2025-01-01 17:17:00,NOAA-21,PARÁ,JURUTI,Amazônia,0,0.09,0.000,15.70
-1.574960,-55.105990,2025-01-01 17:17:00,NOAA-21,PARÁ,ALENQUER,Amazônia,0,2.10,0.090,10.70
-1.276110,-52.049480,2025-01-01 17:17:00,NOAA-21,PARÁ,ALMEIRIM,Amazônia,0,10.02,0.000,4.10
-20.802230,-50.595390,2025-01-01 17:13:00,NOAA-21,SÃO PAULO,SANTO ANTÔNIO DO ARACANGUÁ,Mata Atlântica,3,7.50,0.000,10.30
-3.223880,-48.765770,2025-01-01 17:17:00,NOAA-21,PARÁ,TAILÂNDIA,Amazônia,0,5.02,0.000,3.90
-19.899150,-49.914440,2025-01-01 17:13:00,NOAA-21,MINAS GERAIS,SÃO FRANCISCO DE SALES,Mata Atlântica,0,5.04,0.040,8.70
-22.067260,-52.321840,2025-01-01 17:13:00,NOAA-21,SÃO PAULO,PRESIDENTE EPITÁCIO,Mata Atlântica,6,0.30,0.610,12.00
-1.688680,-45.895230,2025-01-01 17:17:00,NOAA-21,MARANHÃO,AMAPÁ DO MARANHÃO,Amazônia,1,0.10,0.580,36.20
-21.090730,-50.071370,2025-01-01 17:13:00,NOAA-21,SÃO PAULO,ZACARIAS,Mata Atlântica,3,3.98,0.050,6.90
-21.091500,-50.075820,2025-01-01 17:13:00,NOAA-21,SÃO PAULO,ZACARIAS,Mata Atlântica,3,3.94,0.060,6.90
-11.054280,-52.464520,2025-01-01 17:15:00,NOAA-21,MATO GROSSO,SÃO JOSÉ DO XINGU,Amazônia,0,0.99,0.000,5.70
4.373220,-60.634650,2025-01-01 18:08:00,NOAA-20,RORAIMA,PACARAIMA,Amazônia,0,0.00,0.420,8.80
2.752630,-60.761520,2025-01-01 18:34:00,AQUA_M-T,RORAIMA,BOA VISTA,Amazônia,0,0.42,0.070,19.50
-7.656400,-35.181301,2025-01-02 00:18:00,METOP-B,PERNAMBUCO,ALIANÇA,Mata Atlântica,39,0.00,1.000,
-7.144830,-35.053650,2025-01-02 00:28:00,TERRA_M-M,PARAÍBA,CRUZ DO ESPÍRITO SANTO,Mata Atlântica,,0.00,1.000,29.40
-8.436690,-40.539650,2025-01-02 00:28:00,TERRA_M-M,PERNAMBUCO,DORMENTES,Caatinga,14,0.00,1.000,9.30
-13.133200,-41.770270,2025-01-02 03:06:00,NPP-375D,BAHIA,PIATÃ,Caatinga,2,0.10,0.430,1.00
-5.242000,-36.189650,2025-01-02 03:04:00,NPP-375D,RIO GRANDE DO NORTE,GALINHOS,Caatinga,24,0.00,1.000,1.10
-22.672000,-42.859850,2025-01-02 03:10:00,NPP-375D,RIO DE JANEIRO,ITABORAÍ,Mata Atlântica,0,1.56,,1.50
-10.149360,-36.549190,2025-01-02 03:06:00,NPP-375D,ALAGOAS,IGREJA NOVA,Caatinga,,0.00,1.000,3.80
-7.034630,-39.214790,2025-01-02 03:04:00,NPP-375D,CEARÁ,CARIRIAÇU,Caatinga,4,0.00,0.960,2.00
-6.635950,-38.737420,2025-01-02 03:27:00,NOAA-20,CEARÁ,UMARI,Caatinga,7,0.00,1.000,8.60
-2.278980,-46.409680,2025-01-02 04:21:00,NOAA-21,MARANHÃO,CENTRO NOVO DO MARANHÃO,Amazônia,0,0.00,0.080,1.60
-1.616690,-46.242610,2025-01-02 04:21:00,NOAA-21,PARÁ,VISEU,Amazônia,0,0.00,0.430,1.00
-1.716320,-46.233070,2025-01-02 04:44:00,NPP-375D,PARÁ,VISEU,Amazônia,0,0.00,0.230,1.30
-3.109060,-51.997940,2025-01-02 04:44:00,NPP-375D,PARÁ,VITÓRIA DO XINGU,Amazônia,0,0.00,0.010,1.90
-4.927920,-48.565990,2025-01-02 04:46:00,NPP-375D,PARÁ,BOM JESUS DO TOCANTINS,Amazônia,0,18.61,0.000,0.80
-9.505730,-40.321290,2025-01-02 04:46:00,NPP-375D,BAHIA,JUAZEIRO,Caatinga,17,0.00,1.000,2.20
-16.299160,-56.840260,2025-01-02 05:12:00,NOAA-20,MATO GROSSO,POCONÉ,Pantanal,6,7.85,0.130,0.80
-3.212980,-53.018990,2025-01-02 05:08:00,NOAA-20,PARÁ,MEDICILÂNDIA,Amazônia,1,0.64,0.010,1.10
-9.237870,-60.337320,2025-01-02 05:10:00,NOAA-20,MATO GROSSO,COLNIZA,Amazônia,0,4.17,0.030,2.80
-18.002120,-47.681550,2025-01-02 12:57:00,TERRA_M-T,GOIÁS,CATALÃO,Cerrado,1,7.70,,10.20
-2.981510,-41.698870,2025-01-02 12:53:00,TERRA_M-T,PIAUÍ,PARNAÍBA,Caatinga,,0.80,0.810,104.50
-17.784780,-51.913760,2025-01-02 12:57:00,TERRA_M-T,GOIÁS,JATAÍ,Cerrado,0,4.20,0.050,7.50
-4.231950,-47.168050,2025-01-02 12:53:00,TERRA_M-T,MARANHÃO,ITINGA DO MARANHÃO,Amazônia,1,0.70,0.620,14.50
-8.437720,-36.485390,2025-01-02 15:41:00,NPP-375,PERNAMBUCO,SÃO BENTO DO UNA,Caatinga,11,0.00,1.000,10.80
-7.971550,-38.429260,2025-01-02 15:41:00,NPP-375,PERNAMBUCO,SERRA TALHADA,Caatinga,3,0.00,1.000,7.60
-9.561100,-38.286800,2025-01-02 15:41:00,NPP-375,BAHIA,PAULO AFONSO,Caatinga,25,0.00,1.000,22.20
-14.596920,-41.183870,2025-01-02 15:39:00,NPP-375,BAHIA,CARAÍBAS,Caatinga,2,0.00,1.000,6.80
-15.059340,-40.326150,2025-01-02 15:39:00,NPP-375,BAHIA,CAATIBA,Mata Atlântica,2,0.00,1.000,6.80
-12.258550,-40.253480,2025-01-02 15:39:00,NPP-375,BAHIA,RUY BARBOSA,Caatinga,25,0.00,1.000,7.00
-13.301120,-40.077630,2025-01-02 15:39:00,NPP-375,BAHIA,IRAJUBA,Mata Atlântica,4,0.00,1.000,2.10
-7.606010,-41.270250,2025-01-02 15:41:00,NPP-375,PIAUÍ,JAICÓS,Caatinga,3,0.00,1.000,3.30
-4.975810,-39.812810,2025-01-02 15:41:00,NPP-375,CEARÁ,BOA VIAGEM,Caatinga,26,0.10,1.000,8.50
-4.482570,-39.341980,2025-01-02 15:41:00,NPP-375,CEARÁ,CANINDÉ,Caatinga,23,6.60,0.630,12.70
-6.623900,-38.836680,2025-01-02 15:41:00,NPP-375,CEARÁ,UMARI,Caatinga,4,0.00,1.000,15.60
-3.467780,-42.029070,2025-01-02 15:43:00,NPP-375,PIAUÍ,MURICI DOS PORTELAS,Caatinga,2,0.00,0.750,8.70
-1.066810,-47.057990,2025-01-02 15:43:00,NPP-375,PARÁ,CAPANEMA,Amazônia,0,0.10,0.210,9.60
-3.793120,-41.607750,2025-01-02 15:43:00,NPP-375,PIAUÍ,PIRACURUCA,Caatinga,12,0.22,0.920,11.30
-7.709040,-37.451860,2025-01-02 15:41:00,NPP-375,PERNAMBUCO,INGAZEIRA,Caatinga,25,0.00,1.000,7.60
-7.846340,-37.602140,2025-01-02 15:41:00,NPP-375,PERNAMBUCO,AFOGADOS DA INGAZEIRA,Caatinga,16,0.00,1.000,16.50
-10.615400,-44.325000,2025-01-02 15:39:00,NPP-375,BAHIA,SANTA RITA DE CÁSSIA,Cerrado,1,0.45,0.020,36.10
-7.019810,-38.749530,2025-01-02 15:41:00,NPP-375,CEARÁ,BARRO,Caatinga,11,0.00,1.000,2.60
-13.181040,-40.465500,2025-01-02 15:39:00,NPP-375,BAHIA,PLANALTINO,Caatinga,16,0.00,1.000,3.90
-8.788260,-40.586050,2025-01-02 15:41:00,NPP-375,PERNAMBUCO,PETROLINA,Caatinga,17,0.00,1.000,3.40
-3.859580,-42.521670,2025-01-02 15:43:00,NPP-375,PIAUÍ,CAMPO LARGO DO PIAUÍ,Caatinga,2,0.00,0.420,4.30
-12.572220,-39.327990,2025-01-02 15:39:00,NPP-375,BAHIA,CASTRO ALVES,Mata Atlântica,17,0.00,1.000,12.10
-7.922350,-35.547340,2025-01-02 15:16:00,NOAA-21,PERNAMBUCO,SALGADINHO,Caatinga,24,0.00,1.000,8.80
-7.387780,-35.797080,2025-01-02 15:16:00,NOAA-21,PARAÍBA,FAGUNDES,Caatinga,26,0.00,1.000,21.70
-7.216340,-37.638330,2025-01-02 15:18:00,NOAA-21,PARAÍBA,CATINGUEIRA,Caatinga,16,0.00,1.000,3.70
-8.802780,-35.321600,2025-01-02 15:16:00,NOAA-21,PERNAMBUCO,BARREIROS,Mata Atlântica,5,0.00,1.000,25.30
-6.001820,-36.192250,2025-01-02 15:18:00,NOAA-21,RIO GRANDE DO NORTE,SÃO TOMÉ,Caatinga,6,0.00,1.000,5.90
-10.604470,-39.731110,2025-01-02 15:16:00,NOAA-21,BAHIA,CANSANÇÃO,Caatinga,19,0.00,1.000,7.60
-7.356510,-38.804950,2025-01-02 15:18:00,NOAA-21,CEARÁ,MAURITI,Caatinga,5,0.00,1.000,8.50
-3.602470,-38.993510,2025-01-02 15:18:00,NOAA-21,CEARÁ,SÃO GONÇALO DO AMARANTE,Caatinga,24,0.00,0.960,11.60
-7.509530,-36.707790,2025-01-02 15:16:00,NOAA-21,PARAÍBA,SERRA BRANCA,Caatinga,15,0.00,1.000,5.60
-7.388440,-35.792660,2025-01-02 15:16:00,NOAA-21,PARAÍBA,FAGUNDES,Caatinga,26,0.00,1.000,18.60
-2.319020,-45.665420,2025-01-02 16:05:00,NOAA-20,MARANHÃO,TURILÂNDIA,Amazônia,3,0.00,1.000,2.70
-6.297630,-38.989830,2025-01-02 16:05:00,NOAA-20,CEARÁ,ORÓS,Caatinga,4,0.10,1.000,10.30
-6.612870,-38.964540,2025-01-02 16:05:00,NOAA-20,CEARÁ,CEDRO,Caatinga,4,0.00,1.000,4.20
-5.929730,-43.775510,2025-01-02 16:07:00,NOAA-20,MARANHÃO,BURITI BRAVO,Cerrado,0,0.00,0.390,10.80
-12.498980,-42.075630,2025-01-02 16:05:00,NOAA-20,BAHIA,IBITIARA,Caatinga,2,0.14,0.500,5.60
-3.073630,-41.887510,2025-01-02 16:05:00,NOAA-20,MARANHÃO,ARAIOSES,Caatinga,4,0.72,0.790,6.50
-14.855600,-41.210410,2025-01-02 16:02:00,NOAA-20,BAHIA,BELO CAMPO,Caatinga,2,0.10,0.350,2.80
-5.970650,-38.188560,2025-01-02 16:05:00,NOAA-20,RIO GRANDE DO NORTE,SÃO FRANCISCO DO OESTE,Caatinga,25,0.00,1.000,7.60
-9.017290,-37.577600,2025-01-02 16:05:00,NOAA-20,ALAGOAS,MATA GRANDE,Caatinga,5,0.00,1.000,12.50
-9.824000,-42.249280,2025-01-02 16:05:00,NOAA-20,BAHIA,REMANSO,Caatinga,1,0.31,1.000,10.70
-4.420080,-49.008800,2025-01-02 16:05:00,NOAA-20,PARÁ,JACUNDÁ,Amazônia,0,1.40,0.000,1.90
-6.308030,-38.434500,2025-01-02 16:05:00,NOAA-20,RIO GRANDE DO NORTE,CORONEL JOÃO PESSOA,Caatinga,25,0.00,1.000,4.00
-7.504220,-39.673800,2025-01-02 16:05:00,NOAA-20,PERNAMBUCO,EXU,Caatinga,8,0.00,1.000,54.50
-7.167620,-38.929110,2025-01-02 16:05:00,NOAA-20,CEARÁ,BARRO,Caatinga,5,0.00,1.000,4.90
-7.845450,-35.587260,2025-01-02 16:05:00,NOAA-20,PERNAMBUCO,JOÃO ALFREDO,Caatinga,19,0.00,1.000,10.20
-5.971320,-44.605480,2025-01-02 16:07:00,NOAA-20,MARANHÃO,TUNTUM,Cerrado,2,1.44,0.590,2.60
-3.472080,-43.321520,2025-01-02 16:05:00,NOAA-20,MARANHÃO,URBANO SANTOS,Cerrado,0,0.18,0.500,8.10
-5.825000,-39.899220,2025-01-02 16:05:00,NOAA-20,CEARÁ,MOMBAÇA,Caatinga,9,0.00,1.000,3.90
-4.657550,-38.406840,2025-01-02 16:07:00,NOAA-20,CEARÁ,MORADA NOVA,Caatinga,25,0.10,1.000,14.10
-4.401210,-42.652290,2025-01-02 16:07:00,NOAA-20,PIAUÍ,MIGUEL ALVES,Cerrado,2,0.00,0.260,3.20
-3.377170,-43.305660,2025-01-02 16:05:00,NOAA-20,MARANHÃO,URBANO SANTOS,Cerrado,0,0.34,0.390,10.20
-4.547120,-39.461340,2025-01-02 16:07:00,NOAA-20,CEARÁ,CANINDÉ,Caatinga,24,6.48,0.590,39.00
-8.542210,-39.472240,2025-01-02 16:05:00,NOAA-20,PERNAMBUCO,CABROBÓ,Caatinga,25,0.00,1.000,53.90
-5.898050,-39.530820,2025-01-02 16:05:00,NOAA-20,CEARÁ,PIQUET CARNEIRO,Caatinga,26,0.00,1.000,7.20
-1.581930,-54.218220,2025-01-02 16:05:00,NOAA-20,PARÁ,MONTE ALEGRE,Amazônia,0,0.42,0.540,18.70
-1.734180,-45.895660,2025-01-02 16:05:00,NOAA-20,MARANHÃO,AMAPÁ DO MARANHÃO,Amazônia,3,0.00,1.000,9.40
-7.918790,-35.463420,2025-01-02 16:05:00,NOAA-20,PERNAMBUCO,LIMOEIRO,Mata Atlântica,26,0.00,1.000,2.50
-6.504230,-37.927500,2025-01-02 16:05:00,NOAA-20,PARAÍBA,BOM SUCESSO,Caatinga,13,0.00,1.000,4.00
-6.802190,-35.713130,2025-01-02 16:05:00,NOAA-20,PARAÍBA,SOLÂNEA,Caatinga,25,0.00,1.000,18.50
-2.812830,-46.746010,2025-01-02 16:05:00,NOAA-20,PARÁ,PARAGOMINAS,Amazônia,2,6.92,0.010,62.70
-7.503700,-39.670310,2025-01-02 16:05:00,NOAA-20,PERNAMBUCO,EXU,Caatinga,8,0.00,1.000,54.50
-2.359860,-45.975490,2025-01-02 16:05:00,NOAA-20,MARANHÃO,MARANHÃOZINHO,Amazônia,0,0.00,1.000,4.80
-7.848910,-37.603210,2025-01-02 16:05:00,NOAA-20,PERNAMBUCO,AFOGADOS DA INGAZEIRA,Caatinga,16,0.00,1.000,9.30
-4.312440,-38.683300,2025-01-02 16:07:00,NOAA-20,CEARÁ,BARREIRA,Caatinga,17,0.20,1.000,4.00
-4.032120,-40.654810,2025-01-02 16:07:00,NOAA-20,CEARÁ,RERIUTABA,Caatinga,24,2.67,0.800,20.20
-7.913660,-38.142810,2025-01-02 16:58:00,NOAA-21,PERNAMBUCO,CALUMBI,Caatinga,4,0.00,1.000,9.40
-2.408610,-55.325570,2025-01-02 17:00:00,NOAA-21,PARÁ,SANTARÉM,Amazônia,2,4.20,0.000,7.80
-5.358480,-44.467910,2025-01-02 16:58:00,NOAA-21,MARANHÃO,PRESIDENTE DUTRA,Cerrado,2,3.41,1.000,15.10
-6.274710,-40.603500,2025-01-02 16:58:00,NOAA-21,CEARÁ,PARAMBU,Caatinga,16,0.00,1.000,9.00
-3.601070,-50.626890,2025-01-02 17:00:00,NOAA-21,PARÁ,PACAJÁ,Amazônia,0,1.01,0.050,17.80
-1.370170,-45.854640,2025-01-02 17:00:00,NOAA-21,MARANHÃO,LUÍS DOMINGUES,Amazônia,,0.00,0.720,9.40
-5.583450,-41.346050,2025-01-02 16:58:00,NOAA-21,PIAUÍ,SÃO MIGUEL DO TAPUIO,Caatinga,4,0.00,1.000,20.50
-1.371000,-45.859830,2025-01-02 17:00:00,NOAA-21,MARANHÃO,LUÍS DOMINGUES,Amazônia,,0.00,0.770,8.90
-3.644760,-43.956770,2025-01-02 16:58:00,NOAA-21,MARANHÃO,VARGEM GRANDE,Cerrado,0,0.07,0.030,8.40
-1.643570,-47.228570,2025-01-02 17:00:00,NOAA-21,PARÁ,CAPITÃO POÇO,Amazônia,0,2.18,0.190,10.80
-3.405920,-49.483000,2025-01-02 17:00:00,NOAA-21,PARÁ,BAIÃO,Amazônia,0,9.81,0.000,31.00
-11.865390,-37.888140,2025-01-02 16:56:00,NOAA-21,BAHIA,ESPLANADA,Mata Atlântica,26,0.00,1.000,15.80
-13.390470,-40.314150,2025-01-02 16:56:00,NOAA-21,BAHIA,MARACÁS,Mata Atlântica,9,0.00,1.000,6.30
-4.566860,-46.881980,2025-01-02 16:58:00,NOAA-21,MARANHÃO,BOM JESUS DAS SELVAS,Amazônia,2,0.00,1.000,7.00
-4.014580,-40.615060,2025-01-02 16:58:00,NOAA-21,CEARÁ,CARIRÉ,Caatinga,24,2.35,1.000,7.10
-2.081530,-46.655930,2025-01-02 17:00:00,NOAA-21,PARÁ,VISEU,Amazônia,0,0.00,0.180,6.30
-3.743240,-43.133410,2025-01-02 16:58:00,NOAA-21,MARANHÃO,BURITI,Cerrado,0,0.00,0.330,18.20
-1.066620,-47.057070,2025-01-02 17:00:00,NOAA-21,PARÁ,CAPANEMA,Amazônia,0,0.10,0.270,5.20
-1.600600,-54.828640,2025-01-02 17:00:00,NOAA-21,PARÁ,ALENQUER,Amazônia,1,0.84,0.090,9.80
-3.082170,-47.763620,2025-01-02 17:00:00,NOAA-21,PARÁ,PARAGOMINAS,Amazônia,0,6.31,0.010,32.70
-1.376040,-55.955680,2025-01-02 17:00:00,NOAA-21,PARÁ,ORIXIMINÁ,Amazônia,0,7.48,0.010,23.80
-2.036940,-46.520340,2025-01-02 17:00:00,NOAA-21,PARÁ,CACHOEIRA DO PIRIÁ,Amazônia,0,0.00,0.050,15.40
-1.928180,-45.626530,2025-01-02 17:00:00,NOAA-21,MARANHÃO,TURIAÇU,Amazônia,4,0.00,0.940,11.90
-5.146520,-39.690780,2025-01-02 16:58:00,NOAA-21,CEARÁ,BOA VIAGEM,Caatinga,26,0.00,1.000,11.20
-2.645040,-54.228930,2025-01-02 17:00:00,NOAA-21,PARÁ,SANTARÉM,Amazônia,0,0.19,0.040,87.50
-5.722290,-44.006670,2025-01-02 16:58:00,NOAA-21,MARANHÃO,FORTUNA,Cerrado,1,0.40,0.490,9.60
-6.565400,-39.008540,2025-01-02 16:58:00,NOAA-21,CEARÁ,CEDRO,Caatinga,4,0.00,1.000,9.70
-4.382760,-43.724950,2025-01-02 16:58:00,NOAA-21,MARANHÃO,CODÓ,Cerrado,0,0.00,0.940,3.50
1.293410,-60.430080,2025-01-02 17:02:00,NOAA-21,RORAIMA,CARACARAÍ,Amazônia,1,0.60,0.510,8.30
-5.877830,-39.369220,2025-01-02 16:58:00,NOAA-21,CEARÁ,PIQUET CARNEIRO,Caatinga,26,0.00,1.000,25.00
-4.266070,-40.680370,2025-01-02 16:58:00,NOAA-21,CEARÁ,PIRES FERREIRA,Caatinga,0,1.90,0.510,18.90
-4.266020,-40.671550,2025-01-02 16:58:00,NOAA-21,CEARÁ,PIRES FERREIRA,Caatinga,0,1.81,0.570,16.50
-7.344470,-39.661450,2025-01-02 16:58:00,NOAA-21,CEARÁ,SANTANA DO CARIRI,Caatinga,4,0.00,1.000,20.20
-3.916980,-47.528800,2025-01-02 16:58:00,NOAA-21,PARÁ,ULIANÓPOLIS,Amazônia,0,0.40,0.040,4.60
-14.393380,-40.186910,2025-01-02 16:56:00,NOAA-21,BAHIA,BOA NOVA,Mata Atlântica,2,0.10,0.980,14.80
-1.672230,-52.902790,2025-01-02 17:24:00,NPP-375,PARÁ,PORTO DE MOZ,Amazônia,1,8.83,0.100,14.30
-21.619290,-51.782880,2025-01-02 17:17:00,NPP-375,SÃO PAULO,PRESIDENTE VENCESLAU,Mata Atlântica,5,2.60,0.150,3.80
-31.051550,-53.255260,2025-01-02 17:15:00,NPP-375,RIO GRANDE DO SUL,PINHEIRO MACHADO,Pampa,0,0.42,0.510,4.70
-11.866080,-63.698910,2025-01-02 17:21:00,NPP-375,RONDÔNIA,SÃO FRANCISCO DO GUAPORÉ,Amazônia,3,1.90,0.030,3.40
-25.792710,-53.304700,2025-01-02 17:17:00,NPP-375,PARANÁ,SALTO DO LONTRA,Mata Atlântica,9,7.29,0.170,3.90
-1.666240,-46.552700,2025-01-02 17:24:00,NPP-375,PARÁ,CACHOEIRA DO PIRIÁ,Amazônia,0,0.00,0.760,4.70
-20.616590,-43.129660,2025-01-02 17:17:00,NPP-375,MINAS GERAIS,PORTO FIRME,Mata Atlântica,1,1.97,0.000,2.30
-1.522370,-54.844990,2025-01-02 17:24:00,NPP-375,PARÁ,ALENQUER,Amazônia,0,0.44,0.060,9.00
-2.845480,-46.725640,2025-01-02 17:24:00,NPP-375,PARÁ,PARAGOMINAS,Amazônia,2,6.37,0.000,7.30
-1.707960,-53.439680,2025-01-02 17:24:00,NPP-375,PARÁ,PRAINHA,Amazônia,1,1.63,0.130,5.30
-3.590230,-50.099250,2025-01-02 17:24:00,NPP-375,PARÁ,PACAJÁ,Amazônia,2,0.00,0.070,3.50
-0.643350,-52.392500,2025-01-02 17:24:00,NPP-375,AMAPÁ,LARANJAL DO JARI,Amazônia,1,1.76,0.230,6.00
-1.498640,-53.822030,2025-01-02 17:24:00,NPP-375,PARÁ,PRAINHA,Amazônia,3,0.10,0.220,15.30
-3.803580,-49.211570,2025-01-02 17:24:00,NPP-375,PARÁ,BREU BRANCO,Amazônia,1,1.24,0.110,3.40
-3.006400,-46.709250,2025-01-02 17:24:00,NPP-375,PARÁ,PARAGOMINAS,Amazônia,0,1.95,0.130,11.30
-2.644300,-54.225590,2025-01-02 17:24:00,NPP-375,PARÁ,SANTARÉM,Amazônia,0,0.16,0.040,2.50
-3.364160,-49.028180,2025-01-02 17:24:00,NPP-375,PARÁ,MOJU,Amazônia,0,0.61,0.000,11.10
3.620630,-60.419020,2025-01-02 17:49:00,NOAA-20,RORAIMA,NORMANDIA,Amazônia,2,0.45,1.000,10.40
-3.775170,-43.251490,2025-01-02 17:34:00,AQUA_M-T,MARANHÃO,CHAPADINHA,Cerrado,1,0.00,0.460,14.10
-3.468150,-49.497620,2025-01-02 17:34:00,AQUA_M-T,PARÁ,BREU BRANCO,Amazônia,0,8.21,0.000,42.10
-4.451140,-45.839910,2025-01-02 17:34:00,AQUA_M-T,MARANHÃO,SANTA LUZIA,Amazônia,3,0.00,1.000,17.20
-3.937930,-49.347210,2025-01-02 17:34:00,AQUA_M-T,PARÁ,BREU BRANCO,Amazônia,0,4.87,0.000,9.80
-2.285730,-45.483000,2025-01-02 17:34:00,AQUA_M-T,MARANHÃO,TURILÂNDIA,Amazônia,4,0.00,0.690,11.00
-1.946130,-45.622110,2025-01-02 17:34:00,AQUA_M-T,MARANHÃO,TURIAÇU,Amazônia,3,0.00,0.910,13.30
-1.752750,-54.330810,2025-01-02 17:34:00,AQUA_M-T,PARÁ,MONTE ALEGRE,Amazônia,0,1.21,0.840,27.80
-1.812530,-45.029830,2025-01-02 17:34:00,AQUA_M-T,MARANHÃO,SERRANO DO MARANHÃO,Amazônia,,0.10,0.770,23.80
-2.874030,-46.735280,2025-01-02 17:34:00,AQUA_M-T,PARÁ,PARAGOMINAS,Amazônia,2,6.24,0.030,49.20
-4.301740,-40.681060,2025-01-02 17:34:00,AQUA_M-T,CEARÁ,IPU,Caatinga,0,1.75,0.680,162.20
-6.051200,-43.739540,2025-01-02 17:32:00,AQUA_M-T,MARANHÃO,PASSAGEM FRANCA,Cerrado,1,0.00,0.760,19.60
-5.899780,-44.089400,2025-01-02 17:32:00,AQUA_M-T,MARANHÃO,COLINAS,Cerrado,0,1.05,0.360,9.30
-5.486750,-44.793660,2025-01-02 17:32:00,AQUA_M-T,MARANHÃO,TUNTUM,Cerrado,1,6.17,0.830,8.90
-5.127270,-44.725920,2025-01-02 17:32:00,AQUA_M-T,MARANHÃO,JOSELÂNDIA,Cerrado,3,0.86,0.900,31.80
-4.552570,-44.714430,2025-01-02 17:34:00,AQUA_M-T,MARANHÃO,TRIZIDELA DO VALE,Cerrado,1,2.12,0.240,13.00
-1.244970,-52.008820,2025-01-02 17:34:00,AQUA_M-T,PARÁ,ALMEIRIM,Amazônia,0,8.59,0.000,20.70
-2.473310,-47.470350,2025-01-02 17:34:00,AQUA_M-T,PARÁ,IPIXUNA DO PARÁ,Amazônia,1,8.30,0.000,25.10
-4.366060,-45.885100,2025-01-02 17:34:00,AQUA_M-T,MARANHÃO,SANTA LUZIA,Amazônia,0,0.00,0.400,11.50
-9.152470,-44.993520,2025-01-02 17:32:00,AQUA_M-T,PIAUÍ,BOM JESUS,Cerrado,2,0.00,0.090,15.40
-1.639530,-45.361430,2025-01-02 17:34:00,AQUA_M-T,MARANHÃO,TURIAÇU,Amazônia,4,0.00,0.760,6.70
-5.659650,-44.838860,2025-01-02 17:32:00,AQUA_M-T,MARANHÃO,TUNTUM,Cerrado,0,3.85,0.560,47.80
-6.264940,-43.310660,2025-01-02 17:32:00,AQUA_M-T,MARANHÃO,SÃO FRANCISCO DO MARANHÃO,Cerrado,5,0.10,0.880,21.10
-5.963900,-44.207990,2025-01-02 17:32:00,AQUA_M-T,MARANHÃO,COLINAS,Cerrado,0,0.81,0.330,10.20
-10.577840,-45.216440,2025-01-02 17:32:00,AQUA_M-T,PIAUÍ,CORRENTE,Cerrado,2,0.10,0.270,12.00
-7.214430,-40.538020,2025-01-02 17:32:00,AQUA_M-T,PIAUÍ,CALDEIRÃO GRANDE DO PIAUÍ,Caatinga,3,0.00,1.000,42.60
-30.421320,-53.017430,2025-01-03 16:58:00,NPP-375,RIO GRANDE DO SUL,CACHOEIRA DO SUL,Pampa,0,0.00,0.510,8.30
-6.311600,-53.136050,2025-01-03 18:13:00,AQUA_M-T,PARÁ,SÃO FÉLIX DO XINGU,Amazônia,0,1.12,0.010,10.20
4.395900,-60.417770,2025-01-03 18:15:00,AQUA_M-T,RORAIMA,UIRAMUTÃ,Amazônia,0,0.69,0.500,12.50
-5.723800,-40.544300,2025-01-03 21:50:00,GOES-16,CEARÁ,INDEPENDÊNCIA,Caatinga,24,0.00,1.000,95.10
-10.617280,-44.344030,2025-01-03 01:09:00,TERRA_M-M,BAHIA,SANTA RITA DE CÁSSIA,Cerrado,2,0.49,0.030,46.10
-2.576860,-51.915840,2025-01-03 01:11:00,TERRA_M-M,PARÁ,SENADOR JOSÉ PORFÍRIO,Amazônia,0,32.07,0.000,4.40
-9.242610,-60.338370,2025-01-03 01:09:00,TERRA_M-M,MATO GROSSO,COLNIZA,Amazônia,0,0.88,0.130,19.90
-6.758170,-35.061820,2025-01-03 02:47:00,NPP-375D,PARAÍBA,MARCAÇÃO,Mata Atlântica,21,0.00,1.000,3.70
-9.867870,-36.290760,2025-01-03 02:47:00,NPP-375D,ALAGOAS,CAMPO ALEGRE,Mata Atlântica,28,0.10,1.000,27.30
-8.399930,-36.809950,2025-01-03 03:10:00,NOAA-20,PERNAMBUCO,PESQUEIRA,Caatinga,7,0.00,1.000,2.40
-10.989360,-40.473340,2025-01-03 03:10:00,NOAA-20,BAHIA,MIRANGABA,Caatinga,11,0.00,1.000,1.80
-1.259520,-53.860190,2025-01-03 04:25:00,NPP-375D,PARÁ,MONTE ALEGRE,Amazônia,3,2.78,0.100,1.30
-3.859410,-40.454290,2025-01-03 04:25:00,NPP-375D,CEARÁ,CARIRÉ,Caatinga,19,14.85,0.050,1.70
-5.380920,-46.286320,2025-01-03 04:25:00,NPP-375D,MARANHÃO,GRAJAÚ,Amazônia,2,6.55,0.380,1.20
-3.979490,-40.920460,2025-01-03 04:25:00,NPP-375D,CEARÁ,IBIAPINA,Caatinga,18,4.51,0.650,0.90
-4.892250,-40.828190,2025-01-03 04:25:00,NPP-375D,CEARÁ,IPAPORANGA,Caatinga,19,0.00,1.000,1.60
-3.906290,-47.050050,2025-01-03 04:25:00,NPP-375D,MARANHÃO,ITINGA DO MARANHÃO,Amazônia,0,3.90,0.070,1.00
-5.626870,-44.836660,2025-01-03 04:25:00,NPP-375D,MARANHÃO,TUNTUM,Cerrado,0,6.68,0.340,5.60
-1.681100,-46.171380,2025-01-03 04:25:00,NPP-375D,PARÁ,VISEU,Amazônia,0,16.95,0.010,0.70
-4.721430,-46.993330,2025-01-03 04:25:00,NPP-375D,MARANHÃO,AÇAILÂNDIA,Amazônia,2,1.24,1.000,0.50
-29.456740,-54.071400,2025-01-03 04:55:00,NOAA-20,RIO GRANDE DO SUL,SÃO MARTINHO DA SERRA,Mata Atlântica,5,0.00,0.530,0.60
-1.870070,-54.123040,2025-01-03 04:48:00,NOAA-20,PARÁ,MONTE ALEGRE,Amazônia,2,0.37,0.770,0.80
-3.905280,-47.052950,2025-01-03 04:48:00,NOAA-20,MARANHÃO,ITINGA DO MARANHÃO,Amazônia,0,3.93,0.120,1.70
-6.121860,-42.544090,2025-01-03 04:50:00,NOAA-20,PIAUÍ,JARDIM DO MULATO,Caatinga,3,2.61,0.730,2.40
-1.717230,-46.231220,2025-01-03 04:48:00,NOAA-20,PARÁ,VISEU,Amazônia,0,19.35,0.000,0.70
-3.976890,-40.918900,2025-01-03 04:01:00,NOAA-21,CEARÁ,IBIAPINA,Caatinga,18,4.64,0.630,1.30
-21.817150,-55.341770,2025-01-03 04:06:00,NOAA-21,MATO GROSSO DO SUL,MARACAJU,Cerrado,2,0.96,0.270,6.20
-12.264710,-44.984860,2025-01-03 04:04:00,NOAA-21,BAHIA,BARREIRAS,Cerrado,1,2.66,0.090,1.00
-5.020310,-39.714420,2025-01-03 04:01:00,NOAA-21,CEARÁ,BOA VIAGEM,Caatinga,24,0.00,1.000,0.70
-14.875050,-40.779080,2025-01-03 04:04:00,NOAA-21,BAHIA,VITÓRIA DA CONQUISTA,Mata Atlântica,0,2.91,0.130,1.70
-7.811530,-35.235490,2025-01-03 04:01:00,NOAA-21,PERNAMBUCO,TRACUNHAÉM,Mata Atlântica,28,0.00,1.000,0.80
-4.161880,-42.027470,2025-01-03 04:01:00,NOAA-21,PIAUÍ,BATALHA,Caatinga,6,4.31,0.340,24.50
-7.971330,-38.430380,2025-01-03 04:01:00,NOAA-21,PERNAMBUCO,SERRA TALHADA,Caatinga,4,0.00,1.000,1.30
-7.885200,-42.442540,2025-01-03 04:01:00,NOAA-21,PIAUÍ,SOCORRO DO PIAUÍ,Caatinga,0,0.07,0.500,3.20
-3.543750,-41.965690,2025-01-03 04:01:00,NOAA-21,PIAUÍ,JOAQUIM PIRES,Caatinga,3,7.91,0.110,1.40
-6.978200,-43.554470,2025-01-03 04:01:00,NOAA-21,PIAUÍ,JERUMENHA,Cerrado,2,0.14,0.090,4.40
-4.485980,-47.141320,2025-01-03 04:01:00,NOAA-21,MARANHÃO,AÇAILÂNDIA,Amazônia,2,8.03,0.060,2.50
-21.828350,-56.414010,2025-01-03 05:48:00,NOAA-21,MATO GROSSO DO SUL,BELA VISTA,Cerrado,0,0.36,0.490,4.00
-9.255290,-60.319070,2025-01-03 05:44:00,NOAA-21,MATO GROSSO,COLNIZA,Amazônia,0,1.01,0.120,2.90
-21.834740,-56.414710,2025-01-03 05:48:00,NOAA-21,MATO GROSSO DO SUL,BELA VISTA,Cerrado,0,0.35,0.550,4.00
-8.654770,-37.214740,2025-01-03 11:55:00,TERRA_M-M,PERNAMBUCO,BUÍQUE,Caatinga,6,0.00,1.000,18.00
-12.815040,-39.817500,2025-01-03 11:57:00,TERRA_M-M,BAHIA,ITATIM,Caatinga,14,0.00,1.000,13.70
-9.596100,-37.084790,2025-01-03 11:55:00,TERRA_M-M,ALAGOAS,MAJOR ISIDORO,Caatinga,9,0.00,1.000,9.60
-10.469490,-39.171280,2025-01-03 11:57:00,TERRA_M-M,BAHIA,MONTE SANTO,Caatinga,19,0.00,1.000,17.20
-11.418120,-58.754280,2025-01-03 13:33:00,TERRA_M-T,MATO GROSSO,JUÍNA,Amazônia,0,3.61,,6.30
-10.612800,-44.328400,2025-01-03 14:10:00,GOES-16,BAHIA,SANTA RITA DE CÁSSIA,Cerrado,2,0.60,0.040,81.20
-4.153600,-42.032600,2025-01-03 01:40:00,GOES-16,PIAUÍ,BATALHA,Caatinga,5,4.49,0.250,71.10
-2.355800,-54.643000,2025-01-03 00:40:00,GOES-16,PARÁ,SANTARÉM,Amazônia,1,1.39,,69.70
-4.172300,-42.031500,2025-01-03 00:40:00,GOES-16,PIAUÍ,BATALHA,Caatinga,5,4.04,0.550,88.60
-10.612800,-44.328400,2025-01-03 01:40:00,GOES-16,BAHIA,SANTA RITA DE CÁSSIA,Cerrado,2,0.60,0.040,66.10
-7.415420,-37.425500,2025-01-03 16:34:00,AQUA_M-T,PERNAMBUCO,SANTA TEREZINHA,Caatinga,25,0.00,1.000,28.70
-12.359210,-40.403320,2025-01-03 15:22:00,NPP-375,BAHIA,ITABERABA,Caatinga,20,0.00,1.000,9.30
-7.785420,-37.191860,2025-01-03 15:22:00,NPP-375,PERNAMBUCO,IGUARACY,Caatinga,6,0.00,1.000,7.70
-3.593460,-40.541330,2025-01-03 15:24:00,NPP-375,CEARÁ,ALCÂNTARAS,Caatinga,18,14.80,0.020,5.40
-11.920980,-39.815940,2025-01-03 15:22:00,NPP-375,BAHIA,PINTADAS,Caatinga,17,0.00,1.000,4.70
-14.977900,-39.440620,2025-01-03 15:20:00,NPP-375,BAHIA,ITAPÉ,Mata Atlântica,16,0.00,1.000,7.10
-10.084450,-39.278850,2025-01-03 15:22:00,NPP-375,BAHIA,UAUÁ,Caatinga,15,0.00,1.000,2.30
-3.559830,-41.534540,2025-01-03 15:24:00,NPP-375,PIAUÍ,COCAL,Caatinga,6,2.20,0.460,13.00
-11.274260,-38.504900,2025-01-03 15:22:00,NPP-375,BAHIA,NOVA SOURE,Caatinga,18,0.00,1.000,4.50
-7.056330,-34.893800,2025-01-03 15:22:00,NPP-375,PARAÍBA,SANTA RITA,Mata Atlântica,,0.00,0.970,23.20
-8.781370,-36.506470,2025-01-03 15:22:00,NPP-375,PERNAMBUCO,CAPOEIRAS,Mata Atlântica,26,0.00,1.000,4.00
-4.910730,-39.812260,2025-01-03 15:24:00,NPP-375,CEARÁ,BOA VIAGEM,Caatinga,27,0.00,1.000,5.40
-15.739730,-39.755340,2025-01-03 15:20:00,NPP-375,BAHIA,POTIRAGUÁ,Mata Atlântica,1,4.98,0.960,15.30
-7.444280,-38.374040,2025-01-03 15:22:00,NPP-375,PARAÍBA,IBIARA,Caatinga,4,1.30,1.000,3.30
-6.423160,-36.124030,2025-01-03 15:22:00,NPP-375,RIO GRANDE DO NORTE,JAÇANÃ,Caatinga,12,0.00,1.000,8.30
-9.635590,-41.827920,2025-01-03 15:45:00,NOAA-20,BAHIA,CASA NOVA,Caatinga,2,3.36,1.000,9.90
-6.332950,-42.010750,2025-01-03 15:45:00,NOAA-20,PIAUÍ,NOVO ORIENTE DO PIAUÍ,Caatinga,2,1.02,0.900,8.10
-5.843760,-35.996030,2025-01-03 15:45:00,NOAA-20,RIO GRANDE DO NORTE,RUY BARBOSA,Caatinga,7,0.00,1.000,4.20
-12.815100,-39.819270,2025-01-03 15:43:00,NOAA-20,BAHIA,ITATIM,Caatinga,14,0.00,1.000,5.40
-13.451050,-40.873570,2025-01-03 15:43:00,NOAA-20,BAHIA,IRAMAIA,Caatinga,13,0.00,1.000,14.20
-6.925930,-38.804690,2025-01-03 15:45:00,NOAA-20,CEARÁ,AURORA,Caatinga,12,0.09,1.000,12.00
-12.360810,-40.400920,2025-01-03 15:43:00,NOAA-20,BAHIA,ITABERABA,Caatinga,20,0.00,1.000,10.40
-6.852450,-40.989400,2025-01-03 15:45:00,NOAA-20,PIAUÍ,MONSENHOR HIPÓLITO,Caatinga,5,0.00,1.000,17.50
-2.402260,-45.999020,2025-01-03 15:48:00,NOAA-20,MARANHÃO,MARANHÃOZINHO,Amazônia,0,37.64,0.000,4.50
-8.618290,-35.161450,2025-01-03 15:45:00,NOAA-20,PERNAMBUCO,RIO FORMOSO,Mata Atlântica,6,0.00,0.970,9.60
-14.635580,-40.540800,2025-01-03 15:43:00,NOAA-20,BAHIA,PLANALTO,Mata Atlântica,3,1.59,0.770,4.50
-4.808090,-43.302240,2025-01-03 15:45:00,NOAA-20,MARANHÃO,CAXIAS,Cerrado,2,3.64,0.310,5.50
-11.794020,-43.838280,2025-01-03 15:43:00,NOAA-20,BAHIA,WANDERLEY,Cerrado,0,3.17,0.000,3.00
-9.847580,-37.121960,2025-01-03 15:43:00,NOAA-20,ALAGOAS,BELO MONTE,Caatinga,19,0.00,1.000,8.40
-5.540140,-40.632050,2025-01-03 15:45:00,NOAA-20,CEARÁ,NOVO ORIENTE,Caatinga,24,0.00,1.000,8.30
-14.932900,-40.341500,2025-01-03 15:43:00,NOAA-20,BAHIA,CAATIBA,Mata Atlântica,2,5.63,0.280,7.50
-8.735420,-44.105450,2025-01-03 15:45:00,NOAA-20,PIAUÍ,CRISTINO CASTRO,Cerrado,2,1.30,0.470,4.80
-9.177500,-35.800430,2025-01-03 15:45:00,NOAA-20,ALAGOAS,FLEXEIRAS,Mata Atlântica,23,0.00,1.000,6.60
-5.188800,-39.692630,2025-01-03 15:45:00,NOAA-20,CEARÁ,BOA VIAGEM,Caatinga,27,0.00,1.000,4.70
-13.001740,-40.084310,2025-01-03 15:43:00,NOAA-20,BAHIA,NOVA ITARANA,Caatinga,9,0.00,1.000,7.60
-8.244820,-36.285000,2025-01-03 15:45:00,NOAA-20,PERNAMBUCO,BELO JARDIM,Caatinga,6,0.00,1.000,8.40
-4.706680,-39.325340,2025-01-03 15:45:00,NOAA-20,CEARÁ,CANINDÉ,Caatinga,15,0.42,1.000,23.30
-15.098890,-40.935780,2025-01-03 15:43:00,NOAA-20,BAHIA,VITÓRIA DA CONQUISTA,Mata Atlântica,2,4.90,0.310,12.40
-6.335440,-42.007050,2025-01-03 15:45:00,NOAA-20,PIAUÍ,NOVO ORIENTE DO PIAUÍ,Caatinga,2,1.03,0.900,9.40
-3.706460,-42.185000,2025-01-03 15:45:00,NOAA-20,PIAUÍ,ESPERANTINA,Caatinga,3,7.02,0.120,6.90
-15.751290,-39.479610,2025-01-03 15:43:00,NOAA-20,BAHIA,MASCOTE,Mata Atlântica,2,2.16,1.000,5.30
-9.723130,-37.790480,2025-01-03 15:45:00,NOAA-20,SERGIPE,POÇO REDONDO,Caatinga,19,0.00,1.000,7.60
-12.405070,-41.468880,2025-01-03 15:43:00,NOAA-20,BAHIA,PALMEIRAS,Caatinga,18,0.00,0.980,32.90
-9.457060,-40.655140,2025-01-03 15:45:00,NOAA-20,PERNAMBUCO,PETROLINA,Caatinga,10,0.00,1.000,18.50
-13.335340,-40.179300,2025-01-03 15:43:00,NOAA-20,BAHIA,LAJEDO DO TABOCAL,Mata Atlântica,9,0.00,1.000,9.60
-5.072750,-38.207850,2025-01-03 15:45:00,NOAA-20,CEARÁ,LIMOEIRO DO NORTE,Caatinga,6,1.78,1.000,8.20
-8.206440,-37.702180,2025-01-03 15:45:00,NOAA-20,PERNAMBUCO,CUSTÓDIA,Caatinga,8,0.00,1.000,29.30
-4.832930,-43.906490,2025-01-03 15:45:00,NOAA-20,MARANHÃO,CODÓ,Cerrado,0,8.71,0.790,7.20
-12.404420,-41.463600,2025-01-03 15:43:00,NOAA-20,BAHIA,PALMEIRAS,Caatinga,18,0.00,0.840,32.90
-5.580000,-39.520000,2025-01-03 18:00:00,MSG-03,CEARÁ,SENADOR POMPEU,Caatinga,26,0.00,1.000,
-3.771420,-43.245290,2025-01-03 17:04:00,NPP-375,MARANHÃO,CHAPADINHA,Cerrado,1,8.20,0.120,13.30
4.448720,-59.971910,2025-01-03 17:09:00,NPP-375,RORAIMA,UIRAMUTÃ,Amazônia,0,0.78,0.520,1.80
-1.481340,-55.822450,2025-01-03 17:06:00,NPP-375,PARÁ,ORIXIMINÁ,Amazônia,1,2.23,0.020,4.40
-14.539580,-40.327330,2025-01-03 17:02:00,NPP-375,BAHIA,POÇÕES,Mata Atlântica,3,0.49,1.000,18.00
-27.906850,-51.909550,2025-01-03 16:58:00,NPP-375,RIO GRANDE DO SUL,SANANDUVA,Mata Atlântica,0,0.00,0.250,4.10
-12.450490,-41.535070,2025-01-03 17:02:00,NPP-375,BAHIA,PALMEIRAS,Caatinga,18,0.00,1.000,16.30
-2.591730,-45.131710,2025-01-03 17:04:00,NPP-375,MARANHÃO,PINHEIRO,Amazônia,2,1.63,0.960,5.20
-13.227180,-40.933350,2025-01-03 17:02:00,NPP-375,BAHIA,ITAETÉ,Caatinga,15,0.00,1.000,9.20
-12.812230,-39.817050,2025-01-03 17:02:00,NPP-375,BAHIA,ITATIM,Caatinga,14,0.00,1.000,17.30
-16.570870,-55.750980,2025-01-03 17:02:00,NPP-375,MATO GROSSO,BARÃO DE MELGAÇO,Pantanal,6,8.94,0.000,5.30
-14.931200,-40.354050,2025-01-03 17:02:00,NPP-375,BAHIA,CAATIBA,Mata Atlântica,2,5.86,0.350,4.10
-1.491240,-55.685390,2025-01-03 17:06:00,NPP-375,PARÁ,ÓBIDOS,Amazônia,1,0.20,0.050,4.70
-14.591970,-40.187480,2025-01-03 17:02:00,NPP-375,BAHIA,IGUAÍ,Mata Atlântica,3,0.35,0.770,6.40
-12.608340,-40.651780,2025-01-03 17:02:00,NPP-375,BAHIA,BOA VISTA DO TUPIM,Caatinga,27,0.00,1.000,4.70
-14.928350,-40.340360,2025-01-03 17:02:00,NPP-375,BAHIA,CAATIBA,Mata Atlântica,2,5.66,0.680,9.70
1.621660,-60.330180,2025-01-03 17:06:00,NPP-375,RORAIMA,CARACARAÍ,Amazônia,0,1.20,0.400,12.60
-6.989040,-43.274030,2025-01-03 17:04:00,NPP-375,PIAUÍ,FLORIANO,Caatinga,2,1.20,0.130,27.30
-2.586200,-45.132550,2025-01-03 17:04:00,NPP-375,MARANHÃO,PINHEIRO,Amazônia,2,1.63,0.840,15.70
-1.260510,-55.792620,2025-01-03 17:06:00,NPP-375,PARÁ,ÓBIDOS,Amazônia,0,0.46,0.270,6.00
-10.596920,-44.677510,2025-01-03 17:02:00,NPP-375,PIAUÍ,PARNAGUÁ,Cerrado,0,7.15,0.010,10.70
-2.693250,-46.758020,2025-01-03 17:04:00,NPP-375,PARÁ,PARAGOMINAS,Amazônia,2,33.68,0.000,14.30
-4.978610,-44.154770,2025-01-03 17:04:00,NPP-375,MARANHÃO,GOVERNADOR ARCHER,Cerrado,3,6.01,0.440,22.30
-3.988710,-42.341310,2025-01-03 17:04:00,NPP-375,PIAUÍ,BARRAS,Caatinga,3,3.12,0.540,6.20
-14.599790,-40.186680,2025-01-03 17:02:00,NPP-375,BAHIA,IGUAÍ,Mata Atlântica,3,0.38,0.660,7.20
-4.242970,-42.536040,2025-01-03 17:04:00,NPP-375,PIAUÍ,BARRAS,Caatinga,3,6.76,0.120,3.50
4.390930,-60.259540,2025-01-03 17:09:00,NPP-375,RORAIMA,UIRAMUTÃ,Amazônia,0,1.28,0.430,7.00
-23.773400,-48.877100,2025-01-03 17:00:00,NPP-375,SÃO PAULO,ITAPEVA,Cerrado,2,9.73,0.000,4.80
-15.331630,-39.069500,2025-01-03 17:02:00,NPP-375,BAHIA,UNA,Mata Atlântica,5,0.00,0.510,7.10
-10.541090,-44.681610,2025-01-03 17:02:00,NPP-375,PIAUÍ,PARNAGUÁ,Cerrado,0,6.78,0.010,11.50
-4.593620,-42.708350,2025-01-03 17:04:00,NPP-375,PIAUÍ,UNIÃO,Cerrado,2,6.59,0.210,2.10
-6.135420,-42.448020,2025-01-03 17:04:00,NPP-375,PIAUÍ,HUGO NAPOLEÃO,Caatinga,3,3.19,0.330,10.10
-3.802850,-43.502180,2025-01-03 17:04:00,NPP-375,MARANHÃO,CHAPADINHA,Cerrado,2,13.68,0.010,6.90
-10.651190,-37.127240,2025-01-03 16:37:00,NOAA-21,SERGIPE,DIVINA PASTORA,Mata Atlântica,38,0.00,1.000,1.60
-3.814680,-47.642430,2025-01-03 16:39:00,NOAA-21,PARÁ,ULIANÓPOLIS,Amazônia,0,10.76,0.000,5.30
-3.986480,-40.393860,2025-01-03 16:39:00,NOAA-21,CEARÁ,CARIRÉ,Caatinga,20,7.37,0.250,12.90
-12.606700,-40.650240,2025-01-03 16:37:00,NOAA-21,BAHIA,BOA VISTA DO TUPIM,Caatinga,27,0.00,1.000,21.80
-6.025020,-39.170350,2025-01-03 16:39:00,NOAA-21,CEARÁ,ACOPIARA,Caatinga,26,0.00,1.000,5.20
-22.933160,-50.841190,2025-01-03 16:34:00,NOAA-21,PARANÁ,SERTANEJA,Mata Atlântica,4,0.91,0.400,17.60
-6.081310,-39.261630,2025-01-03 16:39:00,NOAA-21,CEARÁ,ACOPIARA,Caatinga,20,0.00,1.000,12.00
-5.448290,-39.414610,2025-01-03 16:39:00,NOAA-21,CEARÁ,QUIXERAMOBIM,Caatinga,27,0.00,1.000,9.50
-5.539940,-39.104320,2025-01-03 16:39:00,NOAA-21,CEARÁ,MILHÃ,Caatinga,20,0.00,1.000,12.90
-1.317040,-46.786300,2025-01-03 16:39:00,NOAA-21,PARÁ,BRAGANÇA,Amazônia,0,14.29,0.020,19.20
-6.627280,-38.819710,2025-01-03 16:37:00,NOAA-21,CEARÁ,UMARI,Caatinga,5,0.12,1.000,6.60
-9.175070,-41.147800,2025-01-03 16:37:00,NOAA-21,BAHIA,CASA NOVA,Caatinga,20,0.52,1.000,3.80
-10.545930,-40.545000,2025-01-03 16:37:00,NOAA-21,BAHIA,CAMPO FORMOSO,Caatinga,26,0.00,1.000,7.60
-4.257450,-42.616490,2025-01-03 16:39:00,NOAA-21,PIAUÍ,MIGUEL ALVES,Cerrado,3,5.83,0.140,5.10
-8.954480,-36.739320,2025-01-03 16:37:00,NOAA-21,PERNAMBUCO,SALOÁ,Caatinga,25,0.40,1.000,11.90
-22.499400,-52.757200,2025-01-03 16:34:00,NOAA-21,SÃO PAULO,ROSANA,Mata Atlântica,6,1.46,0.150,5.00
-6.212150,-44.835870,2025-01-03 16:39:00,NOAA-21,MARANHÃO,MIRADOR,Cerrado,1,3.95,0.140,6.80
-30.419770,-53.018630,2025-01-03 16:32:00,NOAA-21,RIO GRANDE DO SUL,CACHOEIRA DO SUL,Pampa,0,0.00,0.430,27.00
-30.602250,-52.685830,2025-01-03 16:32:00,NOAA-21,RIO GRANDE DO SUL,ENCRUZILHADA DO SUL,Pampa,0,0.00,0.090,3.20
-5.640240,-38.095980,2025-01-03 16:39:00,NOAA-21,CEARÁ,ALTO SANTO,Caatinga,13,0.91,1.000,9.20
-17.658390,-39.783980,2025-01-03 16:34:00,NOAA-21,BAHIA,CARAVELAS,Mata Atlântica,3,28.88,0.000,40.20
-13.988990,-39.182230,2025-01-03 16:37:00,NOAA-21,BAHIA,CAMAMU,Mata Atlântica,19,0.00,0.800,5.00
-14.190070,-39.164840,2025-01-03 16:37:00,NOAA-21,BAHIA,MARAÚ,Mata Atlântica,19,0.00,0.690,9.90
-7.652140,-35.186490,2025-01-03 16:37:00,NOAA-21,PERNAMBUCO,ALIANÇA,Mata Atlântica,42,0.00,1.000,10.40
-7.360760,-41.364920,2025-01-03 16:37:00,NOAA-21,PIAUÍ,ITAINÓPOLIS,Caatinga,3,0.00,0.960,4.10
3.893940,-60.628600,2025-01-03 16:41:00,NOAA-21,RORAIMA,PACARAIMA,Amazônia,1,2.65,0.870,7.50
-22.590230,-51.949810,2025-01-03 16:34:00,NOAA-21,PARANÁ,ITAGUAJÉ,Mata Atlântica,5,1.65,0.150,7.10
-15.096990,-39.495190,2025-01-03 16:34:00,NOAA-21,BAHIA,JUSSARI,Mata Atlântica,9,0.00,1.000,24.60
-7.280140,-38.049350,2025-01-03 16:37:00,NOAA-21,PARAÍBA,PIANCÓ,Caatinga,17,0.20,1.000,7.70
-12.456420,-41.521760,2025-01-03 16:37:00,NOAA-21,BAHIA,PALMEIRAS,Caatinga,17,0.00,1.000,53.40
-1.802720,-45.568120,2025-01-03 16:39:00,NOAA-21,MARANHÃO,TURIAÇU,Amazônia,4,4.47,0.310,20.00
-7.701540,-38.595640,2025-01-03 16:37:00,NOAA-21,PARAÍBA,SANTA INÊS,Caatinga,5,0.20,1.000,14.70
-5.665850,-49.222770,2025-01-03 16:39:00,NOAA-21,PARÁ,MARABÁ,Amazônia,0,9.36,0.000,0.80
-2.794580,-45.300880,2025-01-03 16:39:00,NOAA-21,MARANHÃO,PEDRO DO ROSÁRIO,Amazônia,0,7.23,0.510,16.90
-8.737170,-44.107650,2025-01-03 16:37:00,NOAA-21,PIAUÍ,CRISTINO CASTRO,Cerrado,2,1.32,0.460,4.50
-15.103880,-40.941200,2025-01-03 16:34:00,NOAA-21,BAHIA,VITÓRIA DA CONQUISTA,Mata Atlântica,2,4.86,0.110,87.90
-6.106740,-39.953710,2025-01-03 16:39:00,NOAA-21,CEARÁ,ARNEIROZ,Caatinga,17,0.00,1.000,15.50
-4.644890,-44.491080,2025-01-03 16:39:00,NOAA-21,MARANHÃO,LIMA CAMPOS,Cerrado,3,21.19,0.000,15.40
-10.787520,-42.806400,2025-01-03 16:37:00,NOAA-21,BAHIA,BARRA,Cerrado,0,0.00,0.570,29.70
-5.857080,-40.850910,2025-01-03 16:39:00,NOAA-21,CEARÁ,QUITERIANÓPOLIS,Caatinga,23,0.00,1.000,5.10
-3.831950,-38.856930,2025-01-03 16:39:00,NOAA-21,CEARÁ,CAUCAIA,Caatinga,24,0.00,1.000,17.70
-12.811350,-39.818770,2025-01-03 16:37:00,NOAA-21,BAHIA,ITATIM,Caatinga,14,0.00,1.000,11.80
-14.966730,-40.567660,2025-01-03 16:34:00,NOAA-21,BAHIA,BARRA DO CHOÇA,Mata Atlântica,1,2.85,0.890,3.90
-10.471820,-39.169900,2025-01-03 16:37:00,NOAA-21,BAHIA,MONTE SANTO,Caatinga,19,0.00,1.000,15.50
-10.724180,-39.303970,2025-01-03 16:37:00,NOAA-21,BAHIA,CANSANÇÃO,Caatinga,38,0.00,1.000,22.30
-6.963300,-35.163900,2025-01-03 16:37:00,NOAA-21,PARAÍBA,SAPÉ,Mata Atlântica,24,0.00,1.000,39.10
-3.011280,-39.818840,2025-01-03 16:39:00,NOAA-21,CEARÁ,ITAREMA,Caatinga,,5.42,0.710,57.70
-10.297390,-42.483470,2025-01-03 16:37:00,NOAA-21,BAHIA,PILÃO ARCADO,Caatinga,2,0.00,1.000,54.30
-5.271600,-40.585170,2025-01-03 16:39:00,NOAA-21,CEARÁ,CRATEÚS,Caatinga,27,0.00,1.000,9.90
-12.410840,-41.466620,2025-01-03 16:37:00,NOAA-21,BAHIA,PALMEIRAS,Caatinga,17,0.00,0.920,29.90
-30.940380,-53.494810,2025-01-03 18:04:00,AQUA_M-T,RIO GRANDE DO SUL,CAÇAPAVA DO SUL,Pampa,14,0.00,1.000,11.40
1.611770,-60.328130,2025-01-03 18:15:00,AQUA_M-T,RORAIMA,CARACARAÍ,Amazônia,0,1.20,0.390,125.30
-1.491160,-55.556260,2025-01-03 18:15:00,AQUA_M-T,PARÁ,ÓBIDOS,Amazônia,1,0.66,0.050,47.20
4.823870,-60.426990,2025-01-03 17:30:00,NOAA-20,RORAIMA,UIRAMUTÃ,Amazônia,3,1.30,0.150,2.90
-19.017670,-55.154160,2025-01-03 17:24:00,NOAA-20,MATO GROSSO DO SUL,RIO VERDE DE MATO GROSSO,Pantanal,8,1.22,0.470,6.80
-12.487840,-47.929410,2025-01-03 17:26:00,NOAA-20,TOCANTINS,PARANÃ,Cerrado,0,12.83,0.000,5.10
-14.405300,-56.657040,2025-01-03 17:26:00,NOAA-20,MATO GROSSO,NORTELÂNDIA,Cerrado,1,15.47,0.000,4.90
4.003500,-60.646100,2025-01-03 17:30:00,NOAA-20,RORAIMA,PACARAIMA,Amazônia,0,6.52,0.230,7.40
-1.456490,-55.179910,2025-01-03 17:28:00,NOAA-20,PARÁ,ALENQUER,Amazônia,0,1.83,0.040,6.70
-10.553250,-48.846300,2025-01-03 17:26:00,NOAA-20,TOCANTINS,NOVA ROSALÂNDIA,Cerrado,0,4.12,0.000,4.40
-7.182060,-55.012740,2025-01-03 17:26:00,NOAA-20,PARÁ,ALTAMIRA,Amazônia,0,0.35,0.090,4.50
-30.933430,-53.260650,2025-01-03 17:19:00,NOAA-20,RIO GRANDE DO SUL,SANTANA DA BOA VISTA,Pampa,1,0.00,0.950,3.50
4.147280,-60.765300,2025-01-03 17:30:00,NOAA-20,RORAIMA,PACARAIMA,Amazônia,0,16.30,0.010,4.30
4.438320,-60.880750,2025-01-03 17:30:00,NOAA-20,RORAIMA,PACARAIMA,Amazônia,2,5.61,0.320,5.10
4.817000,-60.425950,2025-01-03 17:30:00,NOAA-20,RORAIMA,UIRAMUTÃ,Amazônia,3,1.30,0.150,4.50
3.081790,-60.815760,2025-01-03 17:30:00,NOAA-20,RORAIMA,BOA VISTA,Amazônia,0,1.75,1.000,4.90
-28.752450,-55.556100,2025-01-03 18:15:00,NOAA-21,RIO GRANDE DO SUL,SÃO BORJA,Pampa,10,0.00,0.760,20.20
-9.415480,-62.496210,2025-01-03 18:19:00,NOAA-21,RONDÔNIA,CUJUBIM,Amazônia,0,0.50,0.000,11.50
-9.416180,-62.495830,2025-01-03 18:19:00,NOAA-21,RONDÔNIA,CUJUBIM,Amazônia,0,0.49,0.000,9.30
-30.932240,-53.496440,2025-01-03 18:15:00,NOAA-21,RIO GRANDE DO SUL,CAÇAPAVA DO SUL,Pampa,14,0.00,1.000,6.60
-6.000400,-41.129500,2025-01-03 22:10:00,GOES-16,PIAUÍ,ASSUNÇÃO DO PIAUÍ,Caatinga,7,0.84,1.000,108.50
-3.879000,-47.284100,2025-01-03 22:40:00,GOES-16,PARÁ,ULIANÓPOLIS,Amazônia,0,7.57,0.010,87.60
-3.213500,-46.806300,2025-01-03 22:40:00,GOES-16,PARÁ,PARAGOMINAS,Amazônia,0,3.57,0.010,80.50
-9.873000,-36.270200,2025-01-03 22:40:00,GOES-16,ALAGOAS,CAMPO ALEGRE,Mata Atlântica,31,0.12,1.000,86.40
-10.612400,-44.351700,2025-01-03 23:10:00,GOES-16,BAHIA,SANTA RITA DE CÁSSIA,Cerrado,2,0.52,0.030,63.90
-10.612800,-44.328400,2025-01-03 23:30:00,GOES-16,BAHIA,SANTA RITA DE CÁSSIA,Cerrado,2,0.60,0.040,196.60
-9.776800,-36.179600,2025-01-03 23:40:00,METOP-B,ALAGOAS,SÃO MIGUEL DOS CAMPOS,Mata Atlântica,21,0.10,1.000,
-6.440700,-39.989700,2025-01-03 23:40:00,METOP-B,CEARÁ,SABOEIRO,Caatinga,24,0.00,1.000,
-5.719500,-39.602600,2025-01-03 23:40:00,METOP-B,CEARÁ,MOMBAÇA,Caatinga,23,0.00,1.000,
-6.517990,-40.095040,2025-01-04 16:20:00,NOAA-21,CEARÁ,AIUABA,Caatinga,25,0.00,1.000,10.70
-1.718160,-46.103850,2025-01-04 16:22:00,NOAA-21,MARANHÃO,BOA VISTA DO GURUPI,Amazônia,3,3.16,0.540,6.70
-10.216210,-44.764250,2025-01-05 00:49:00,TERRA_M-M,PIAUÍ,PARNAGUÁ,Cerrado,0,9.10,0.030,5.50
-5.857200,-39.414250,2025-01-04 00:11:00,TERRA_M-M,CEARÁ,PIQUET CARNEIRO,Caatinga,28,0.00,1.000,4.90
-9.243670,-35.595430,2025-01-04 00:09:00,TERRA_M-M,ALAGOAS,SÃO LUÍS DO QUITUNDE,Mata Atlântica,20,0.00,1.000,9.80
-6.978530,-40.011860,2025-01-04 00:11:00,TERRA_M-M,CEARÁ,ASSARÉ,Caatinga,6,0.00,1.000,11.00
-6.833880,-35.075030,2025-01-04 00:11:00,TERRA_M-M,PARAÍBA,RIO TINTO,Mata Atlântica,27,0.00,1.000,9.60
-10.612400,-44.351700,2025-01-04 01:00:00,GOES-16,BAHIA,SANTA RITA DE CÁSSIA,Cerrado,2,3.37,0.020,118.30
-9.835900,-36.195800,2025-01-04 01:10:00,GOES-16,ALAGOAS,JEQUIÁ DA PRAIA,Mata Atlântica,28,0.00,1.000,127.00
1.321800,-60.312300,2025-01-04 02:10:00,GOES-16,RORAIMA,CARACARAÍ,Amazônia,0,0.57,0.540,55.90
-10.612800,-44.328400,2025-01-04 03:10:00,GOES-16,BAHIA,SANTA RITA DE CÁSSIA,Cerrado,2,3.57,0.030,164.50
-10.612400,-44.351700,2025-01-04 03:50:00,GOES-16,BAHIA,SANTA RITA DE CÁSSIA,Cerrado,2,3.37,0.020,88.60
1.335670,-60.308730,2025-01-04 01:51:00,TERRA_M-M,RORAIMA,CARACARAÍ,Amazônia,0,0.70,0.530,101.30
-10.612800,-44.328400,2025-01-04 04:10:00,GOES-16,BAHIA,SANTA RITA DE CÁSSIA,Cerrado,2,3.57,0.030,152.90
-10.612800,-44.328400,2025-01-04 05:20:00,GOES-16,BAHIA,SANTA RITA DE CÁSSIA,Cerrado,2,3.57,0.030,121.00
-10.022120,-36.243260,2025-01-04 02:49:00,NOAA-20,ALAGOAS,CORURIPE,Mata Atlântica,,0.00,1.000,21.70
-7.406360,-35.205140,2025-01-04 02:49:00,NOAA-20,PERNAMBUCO,ITAMBÉ,Mata Atlântica,37,0.00,1.000,1.90
-7.981670,-35.227410,2025-01-04 03:44:00,NOAA-21,PERNAMBUCO,CHÃ DE ALEGRIA,Mata Atlântica,28,0.00,1.000,3.90
-6.916390,-38.202520,2025-01-04 03:44:00,NOAA-21,PARAÍBA,SÃO JOSÉ DA LAGOA TAPADA,Caatinga,25,0.77,1.000,1.60
-30.727850,-53.335720,2025-01-04 03:51:00,NOAA-21,RIO GRANDE DO SUL,CAÇAPAVA DO SUL,Pampa,2,0.00,0.740,1.00
-12.090030,-40.272760,2025-01-04 03:44:00,NOAA-21,BAHIA,MACAJUBA,Caatinga,23,0.00,1.000,0.50
-9.981860,-36.382420,2025-01-04 03:44:00,NOAA-21,ALAGOAS,TEOTÔNIO VILELA,Mata Atlântica,,0.00,1.000,1.90
-6.950790,-38.102000,2025-01-04 03:44:00,NOAA-21,PARAÍBA,SÃO JOSÉ DA LAGOA TAPADA,Caatinga,27,0.04,1.000,1.80
-7.647490,-35.189090,2025-01-04 03:44:00,NOAA-21,PERNAMBUCO,ALIANÇA,Mata Atlântica,44,0.00,1.000,1.20
-10.612390,-44.332720,2025-01-04 03:44:00,NOAA-21,BAHIA,SANTA RITA DE CÁSSIA,Cerrado,2,3.52,0.020,9.70
-9.897930,-36.256520,2025-01-04 04:57:00,AQUA_M-M,ALAGOAS,CAMPO ALEGRE,Mata Atlântica,29,0.00,1.000,35.00
-10.615070,-44.345720,2025-01-04 04:59:00,AQUA_M-M,BAHIA,SANTA RITA DE CÁSSIA,Cerrado,2,3.50,0.020,12.00
-10.287200,-36.362730,2025-01-04 04:08:00,NPP-375D,ALAGOAS,FELIZ DESERTO,Mata Atlântica,,0.00,1.000,1.30
-8.842450,-49.908520,2025-01-04 04:08:00,NPP-375D,PARÁ,SANTA MARIA DAS BARREIRAS,Amazônia,0,0.79,0.000,2.00
-10.614990,-44.340310,2025-01-04 04:08:00,NPP-375D,BAHIA,SANTA RITA DE CÁSSIA,Cerrado,2,3.50,0.020,4.90
-10.607550,-44.342890,2025-01-04 04:08:00,NPP-375D,BAHIA,SANTA RITA DE CÁSSIA,Cerrado,2,3.33,0.040,25.40
-6.949950,-38.103420,2025-01-04 04:08:00,NPP-375D,PARAÍBA,SÃO JOSÉ DA LAGOA TAPADA,Caatinga,27,0.05,1.000,2.00
-9.984320,-36.386020,2025-01-04 04:08:00,NPP-375D,ALAGOAS,TEOTÔNIO VILELA,Mata Atlântica,,0.00,1.000,1.70
-25.191070,-49.327000,2025-01-04 04:14:00,NPP-375D,PARANÁ,RIO BRANCO DO SUL,Mata Atlântica,0,0.00,,1.30
-10.604750,-44.338590,2025-01-04 04:08:00,NPP-375D,BAHIA,SANTA RITA DE CÁSSIA,Cerrado,2,3.31,0.050,0.60
-6.210630,-46.221570,2025-01-04 04:29:00,NOAA-20,MARANHÃO,GRAJAÚ,Cerrado,0,2.02,0.020,2.10
-5.760810,-46.045520,2025-01-04 04:29:00,NOAA-20,MARANHÃO,GRAJAÚ,Cerrado,0,0.22,0.970,0.70
-29.608130,-51.993560,2025-01-04 04:38:00,NOAA-20,RIO GRANDE DO SUL,CRUZEIRO DO SUL,Mata Atlântica,3,0.00,0.760,0.60
-11.110300,-45.295880,2025-01-04 04:31:00,NOAA-20,BAHIA,FORMOSA DO RIO PRETO,Cerrado,0,0.00,0.210,2.10
-2.454300,-48.906720,2025-01-04 04:29:00,NOAA-20,PARÁ,MOJU,Amazônia,1,32.09,0.000,0.70
-5.167280,-40.764230,2025-01-04 04:29:00,NOAA-20,CEARÁ,CRATEÚS,Caatinga,21,0.00,1.000,1.30
-5.914520,-48.079990,2025-01-04 04:29:00,NOAA-20,TOCANTINS,SÃO BENTO DO TOCANTINS,Cerrado,0,1.10,0.230,1.30
1.340000,-60.312200,2025-01-04 07:40:00,GOES-16,RORAIMA,CARACARAÍ,Amazônia,0,0.70,0.530,53.70
3.687250,-60.037700,2025-01-04 05:22:00,NOAA-21,RORAIMA,NORMANDIA,Amazônia,2,0.86,1.000,0.80
2.427470,-60.651440,2025-01-04 05:22:00,NOAA-21,RORAIMA,CANTÁ,Amazônia,1,6.46,0.230,3.30
1.616580,-60.331340,2025-01-04 05:22:00,NOAA-21,RORAIMA,CARACARAÍ,Amazônia,0,1.43,0.420,1.50
1.334820,-60.308990,2025-01-04 05:22:00,NOAA-21,RORAIMA,CARACARAÍ,Amazônia,0,0.70,0.530,14.10
1.336880,-60.311240,2025-01-04 06:09:00,NOAA-20,RORAIMA,CARACARAÍ,Amazônia,0,0.70,0.530,6.60
-7.627880,-37.758630,2025-01-04 12:33:00,TERRA_M-T,PARAÍBA,JURU,Caatinga,24,0.00,1.000,30.40
-11.807740,-48.082290,2025-01-04 12:38:00,TERRA_M-T,TOCANTINS,SÃO VALÉRIO,Cerrado,0,1.52,0.010,73.40
-3.036920,-42.036410,2025-01-04 12:33:00,TERRA_M-T,MARANHÃO,ARAIOSES,Cerrado,,1.37,0.190,12.90
-7.659030,-37.881540,2025-01-04 12:33:00,TERRA_M-T,PARAÍBA,TAVARES,Caatinga,19,0.00,1.000,37.70
-2.415010,-44.788110,2025-01-04 12:33:00,TERRA_M-T,MARANHÃO,BEQUIMÃO,Amazônia,,7.18,0.230,18.30
-6.305920,-38.015840,2025-01-04 12:33:00,TERRA_M-T,RIO GRANDE DO NORTE,PILÕES,Caatinga,9,14.48,0.210,38.70
-6.493340,-35.199730,2025-01-04 15:03:00,NPP-375,RIO GRANDE DO NORTE,PEDRO VELHO,Mata Atlântica,20,0.00,1.000,5.00
-10.629430,-39.329460,2025-01-04 15:26:00,NOAA-20,BAHIA,MONTE SANTO,Caatinga,36,0.00,1.000,7.70
-10.420700,-41.184360,2025-01-04 15:26:00,NOAA-20,BAHIA,CAMPO FORMOSO,Caatinga,20,0.00,1.000,15.60
-9.495090,-35.986320,2025-01-04 15:26:00,NOAA-20,ALAGOAS,ATALAIA,Mata Atlântica,,0.00,1.000,21.60
-3.124970,-39.998470,2025-01-04 15:28:00,NOAA-20,CEARÁ,ACARAÚ,Caatinga,12,1.11,0.710,10.30
-4.838290,-38.613660,2025-01-04 15:28:00,NOAA-20,CEARÁ,MORADA NOVA,Caatinga,2,0.00,1.000,8.60
-4.105510,-43.888980,2025-01-04 15:28:00,NOAA-20,MARANHÃO,TIMBIRAS,Cerrado,2,31.02,0.000,13.70
-8.617600,-40.611960,2025-01-04 15:26:00,NOAA-20,PERNAMBUCO,DORMENTES,Caatinga,17,0.00,1.000,5.80
-10.630580,-39.331300,2025-01-04 15:26:00,NOAA-20,BAHIA,MONTE SANTO,Caatinga,36,0.00,1.000,7.60
-8.395890,-35.579620,2025-01-04 15:26:00,NOAA-20,PERNAMBUCO,CORTÊS,Mata Atlântica,37,0.00,1.000,8.20
-8.450860,-35.105980,2025-01-04 15:26:00,NOAA-20,PERNAMBUCO,IPOJUCA,Mata Atlântica,7,0.00,1.000,6.00
-7.471660,-38.399150,2025-01-04 15:26:00,NOAA-20,PARAÍBA,IBIARA,Caatinga,3,0.00,1.000,13.70
-11.689150,-39.053860,2025-01-04 15:26:00,NOAA-20,BAHIA,SERRINHA,Caatinga,27,0.00,1.000,2.00
-4.035900,-43.238870,2025-01-04 15:28:00,NOAA-20,MARANHÃO,CHAPADINHA,Cerrado,3,15.82,0.030,10.30
-3.510130,-39.044020,2025-01-04 15:28:00,NOAA-20,CEARÁ,PARACURU,Caatinga,,0.00,1.000,3.10
-6.905090,-35.153140,2025-01-04 15:26:00,NOAA-20,PARAÍBA,CAPIM,Mata Atlântica,27,0.00,1.000,18.20
-7.899340,-37.940320,2025-01-04 15:26:00,NOAA-20,PERNAMBUCO,FLORES,Caatinga,7,0.00,1.000,2.20
-8.211760,-35.773180,2025-01-04 15:26:00,NOAA-20,PERNAMBUCO,BEZERROS,Caatinga,28,0.00,1.000,17.10
-10.031360,-42.469640,2025-01-04 15:26:00,NOAA-20,BAHIA,PILÃO ARCADO,Caatinga,0,3.95,1.000,8.60
-8.534020,-36.621620,2025-01-04 15:26:00,NOAA-20,PERNAMBUCO,PESQUEIRA,Caatinga,25,0.00,1.000,4.60
-6.274070,-39.198020,2025-01-04 15:28:00,NOAA-20,CEARÁ,IGUATU,Caatinga,6,0.00,1.000,6.00
-7.972270,-38.424790,2025-01-04 15:26:00,NOAA-20,PERNAMBUCO,SERRA TALHADA,Caatinga,5,0.00,1.000,8.50
-1.150520,-46.744190,2025-01-04 17:15:00,AQUA_M-T,PARÁ,BRAGANÇA,Amazônia,0,4.37,0.020,93.70
-4.196920,-44.514550,2025-01-04 17:13:00,AQUA_M-T,MARANHÃO,BACABAL,Cerrado,0,33.92,0.000,63.20
-14.560040,-40.175950,2025-01-04 17:11:00,AQUA_M-T,BAHIA,IGUAÍ,Mata Atlântica,4,0.32,0.740,174.20
-7.292650,-39.976580,2025-01-04 17:13:00,AQUA_M-T,CEARÁ,ARARIPE,Caatinga,17,0.00,1.000,28.10
-3.951480,-40.717980,2025-01-04 17:13:00,AQUA_M-T,CEARÁ,MUCAMBO,Caatinga,15,1.60,0.350,9.90
-6.890240,-35.519470,2025-01-04 17:13:00,AQUA_M-T,PARAÍBA,CUITEGI,Caatinga,27,0.00,1.000,21.60
-6.293060,-38.224980,2025-01-04 17:13:00,AQUA_M-T,RIO GRANDE DO NORTE,MARCELINO VIEIRA,Caatinga,22,6.30,0.970,41.80
-7.277220,-38.440920,2025-01-04 17:13:00,AQUA_M-T,PARAÍBA,BONITO DE SANTA FÉ,Caatinga,0,0.00,1.000,27.00
-10.645660,-39.058420,2025-01-04 17:11:00,AQUA_M-T,BAHIA,QUIJINGUE,Caatinga,39,0.00,1.000,22.00
-4.676520,-39.696220,2025-01-04 17:13:00,AQUA_M-T,CEARÁ,ITATIRA,Caatinga,23,0.00,1.000,18.90
-9.294950,-36.464050,2025-01-04 17:11:00,AQUA_M-T,ALAGOAS,QUEBRANGULO,Mata Atlântica,7,0.00,1.000,23.10
-3.302950,-40.077110,2025-01-04 17:13:00,AQUA_M-T,CEARÁ,MORRINHOS,Caatinga,0,0.20,0.850,19.80
-2.946420,-41.745710,2025-01-04 17:13:00,AQUA_M-T,PIAUÍ,PARNAÍBA,Caatinga,,0.50,,7.70
-5.933000,-43.776620,2025-01-04 17:13:00,AQUA_M-T,MARANHÃO,BURITI BRAVO,Cerrado,0,0.00,0.150,20.10
-4.198590,-44.526110,2025-01-04 17:13:00,AQUA_M-T,MARANHÃO,BACABAL,Cerrado,0,33.95,0.000,16.70
-6.564610,-42.335700,2025-01-04 17:13:00,AQUA_M-T,PIAUÍ,TANQUE DO PIAUÍ,Caatinga,3,5.84,0.100,14.90
-2.067400,-44.798550,2025-01-04 16:45:00,NPP-375,MARANHÃO,MIRINZAL,Amazônia,,6.53,0.110,5.50
-5.018790,-42.252620,2025-01-04 16:45:00,NPP-375,PIAUÍ,COIVARAS,Caatinga,2,0.91,0.320,4.90
-3.363060,-40.311660,2025-01-04 16:45:00,NPP-375,CEARÁ,SANTANA DO ACARAÚ,Caatinga,0,0.18,0.570,27.40
1.341310,-60.302560,2025-01-04 16:47:00,NPP-375,RORAIMA,CARACARAÍ,Amazônia,0,0.75,0.520,19.50
-2.723880,-53.977780,2025-01-04 16:45:00,NPP-375,PARÁ,PRAINHA,Amazônia,1,2.15,0.050,3.50
-7.697980,-37.891120,2025-01-04 16:43:00,NPP-375,PERNAMBUCO,QUIXABA,Caatinga,13,0.00,1.000,11.00
-5.670360,-49.219490,2025-01-04 16:45:00,NPP-375,PARÁ,MARABÁ,Amazônia,0,0.00,0.060,22.70
-2.365420,-55.922670,2025-01-04 16:45:00,NPP-375,PARÁ,JURUTI,Amazônia,0,2.34,0.010,40.70
-6.051510,-39.013650,2025-01-04 16:43:00,NPP-375,CEARÁ,QUIXELÔ,Caatinga,27,0.00,1.000,14.20
-1.647140,-45.932950,2025-01-04 16:45:00,NPP-375,MARANHÃO,AMAPÁ DO MARANHÃO,Amazônia,3,6.58,0.560,19.80
-8.391730,-35.577990,2025-01-04 16:43:00,NPP-375,PERNAMBUCO,CORTÊS,Mata Atlântica,37,0.00,1.000,10.10
-4.607130,-39.430410,2025-01-04 16:45:00,NPP-375,CEARÁ,CANINDÉ,Caatinga,13,0.00,1.000,4.60
-5.409440,-40.853130,2025-01-04 16:45:00,NPP-375,CEARÁ,CRATEÚS,Caatinga,25,0.00,1.000,6.10
-6.372250,-38.501010,2025-01-04 16:43:00,NPP-375,PARAÍBA,POÇO DANTAS,Caatinga,13,0.98,1.000,14.30
-13.107250,-39.995320,2025-01-04 16:43:00,NPP-375,BAHIA,NOVA ITARANA,Mata Atlântica,6,0.00,1.000,28.40
-8.649290,-41.129680,2025-01-04 16:43:00,NPP-375,PERNAMBUCO,AFRÂNIO,Caatinga,17,0.00,1.000,6.00
-15.094770,-40.936230,2025-01-04 16:41:00,NPP-375,BAHIA,VITÓRIA DA CONQUISTA,Mata Atlântica,2,8.27,0.110,8.30
-9.596560,-50.825860,2025-01-04 16:43:00,NPP-375,PARÁ,SANTANA DO ARAGUAIA,Amazônia,0,2.24,0.000,3.10
-8.791060,-48.339840,2025-01-04 16:43:00,NPP-375,TOCANTINS,GUARAÍ,Cerrado,0,6.96,0.010,4.10
-7.956230,-37.673920,2025-01-04 16:43:00,NPP-375,PERNAMBUCO,CARNAÍBA,Caatinga,7,0.00,1.000,5.40
-7.226800,-38.994680,2025-01-04 16:43:00,NPP-375,CEARÁ,MILAGRES,Caatinga,7,0.00,1.000,4.20
-12.869590,-41.102060,2025-01-04 16:43:00,NPP-375,BAHIA,NOVA REDENÇÃO,Caatinga,21,0.00,1.000,25.90
-4.769910,-44.746300,2025-01-04 16:45:00,NPP-375,MARANHÃO,POÇÃO DE PEDRAS,Cerrado,0,2.35,0.060,5.30
-10.318950,-42.421720,2025-01-04 16:43:00,NPP-375,BAHIA,XIQUE-XIQUE,Caatinga,3,0.16,,5.20
-9.977040,-38.368850,2025-01-04 16:43:00,NPP-375,BAHIA,JEREMOABO,Caatinga,26,0.00,1.000,2.90
-1.643290,-45.933570,2025-01-04 16:45:00,NPP-375,MARANHÃO,AMAPÁ DO MARANHÃO,Amazônia,3,6.43,0.580,61.90
-3.569270,-43.102940,2025-01-04 16:45:00,NPP-375,MARANHÃO,MATA ROMA,Cerrado,1,2.61,0.070,3.30
-9.190610,-44.564300,2025-01-04 16:43:00,NPP-375,PIAUÍ,BOM JESUS,Cerrado,0,12.07,0.010,2.90
-5.127420,-46.004110,2025-01-04 16:45:00,NPP-375,MARANHÃO,ARAME,Amazônia,2,3.70,0.620,9.80
-7.096640,-38.393400,2025-01-04 16:43:00,NPP-375,PARAÍBA,SÃO JOSÉ DE PIRANHAS,Caatinga,18,0.00,1.000,15.40
-3.498040,-44.101830,2025-01-04 16:45:00,NPP-375,MARANHÃO,ITAPECURU MIRIM,Cerrado,4,3.21,0.030,1.40
-5.105150,-43.819770,2025-01-04 16:45:00,NPP-375,MARANHÃO,SÃO JOÃO DO SOTER,Cerrado,3,3.80,0.190,4.20
-4.581730,-40.275760,2025-01-04 16:45:00,NPP-375,CEARÁ,HIDROLÂNDIA,Caatinga,8,0.00,1.000,33.20
-1.396300,-55.183950,2025-01-04 16:45:00,NPP-375,PARÁ,ALENQUER,Amazônia,0,0.70,0.070,3.90
-3.967850,-44.513620,2025-01-04 16:45:00,NPP-375,MARANHÃO,SÃO MATEUS DO MARANHÃO,Cerrado,1,28.79,0.000,2.40
-10.319500,-42.421770,2025-01-04 16:43:00,NPP-375,BAHIA,XIQUE-XIQUE,Caatinga,3,0.16,,8.10
-8.988360,-44.390020,2025-01-04 16:43:00,NPP-375,PIAUÍ,CURRAIS,Cerrado,0,5.36,0.160,2.00
-2.446380,-49.027470,2025-01-04 16:45:00,NPP-375,PARÁ,MOJU,Amazônia,0,17.59,0.000,20.00
-5.798170,-43.276000,2025-01-04 16:45:00,NPP-375,MARANHÃO,PARNARAMA,Cerrado,0,0.10,0.410,6.00
-9.294930,-36.461910,2025-01-04 16:43:00,NPP-375,ALAGOAS,QUEBRANGULO,Mata Atlântica,7,0.00,1.000,8.10
-3.836770,-38.954620,2025-01-04 16:45:00,NPP-375,CEARÁ,CAUCAIA,Caatinga,12,0.00,1.000,8.60
-10.965340,-37.815100,2025-01-04 16:17:00,NOAA-21,SERGIPE,LAGARTO,Caatinga,39,0.00,1.000,10.20
-5.586440,-41.006030,2025-01-04 16:20:00,NOAA-21,PIAUÍ,SÃO MIGUEL DO TAPUIO,Caatinga,25,0.00,1.000,7.20
-7.523640,-37.404300,2025-01-04 16:20:00,NOAA-21,PERNAMBUCO,SÃO JOSÉ DO EGITO,Caatinga,20,0.00,1.000,8.00
-15.133660,-39.427270,2025-01-04 16:17:00,NOAA-21,BAHIA,JUSSARI,Mata Atlântica,6,0.00,0.650,6.90
-15.990380,-38.957480,2025-01-04 16:17:00,NOAA-21,BAHIA,BELMONTE,Mata Atlântica,,2.24,0.470,6.30
-9.280270,-40.206240,2025-01-04 16:20:00,NOAA-21,BAHIA,JUAZEIRO,Caatinga,29,0.00,1.000,8.50
-3.990270,-39.637370,2025-01-04 16:20:00,NOAA-21,CEARÁ,TEJUÇUOCA,Caatinga,2,0.50,1.000,22.90
-5.670390,-49.225780,2025-01-04 16:20:00,NOAA-21,PARÁ,MARABÁ,Amazônia,0,0.00,0.060,7.50
-4.310710,-40.541180,2025-01-04 16:20:00,NOAA-21,CEARÁ,IPU,Caatinga,1,0.36,1.000,6.70
-7.368760,-49.997960,2025-01-04 16:20:00,NOAA-21,PARÁ,RIO MARIA,Amazônia,0,2.29,0.020,10.50
-10.239890,-42.444210,2025-01-04 16:20:00,NOAA-21,BAHIA,PILÃO ARCADO,Caatinga,2,0.64,1.000,13.40
-5.193160,-43.341960,2025-01-04 16:20:00,NOAA-21,MARANHÃO,MATÕES,Cerrado,1,1.20,0.380,6.90
-2.885130,-41.874860,2025-01-04 16:22:00,NOAA-21,MARANHÃO,ARAIOSES,Cerrado,,0.70,0.470,4.20
-5.626830,-39.656360,2025-01-04 16:20:00,NOAA-21,CEARÁ,MOMBAÇA,Caatinga,6,0.00,1.000,6.00
-7.271130,-38.436120,2025-01-04 16:20:00,NOAA-21,PARAÍBA,BONITO DE SANTA FÉ,Caatinga,0,0.00,1.000,19.20
-3.810180,-42.209880,2025-01-04 16:22:00,NOAA-21,PIAUÍ,ESPERANTINA,Caatinga,1,0.85,0.280,14.50
-4.099370,-42.854800,2025-01-04 16:20:00,NOAA-21,PIAUÍ,MIGUEL ALVES,Cerrado,2,15.45,0.010,10.10
-6.683920,-35.462490,2025-01-04 16:20:00,NOAA-21,PARAÍBA,BELÉM,Caatinga,51,0.00,1.000,5.90
-6.136230,-42.568940,2025-01-04 16:20:00,NOAA-21,PIAUÍ,JARDIM DO MULATO,Caatinga,3,8.98,0.140,5.60
-10.237110,-42.448230,2025-01-04 16:20:00,NOAA-21,BAHIA,PILÃO ARCADO,Caatinga,2,0.68,1.000,6.80
-10.000570,-38.597680,2025-01-04 16:20:00,NOAA-21,BAHIA,JEREMOABO,Caatinga,33,0.00,1.000,10.80
-6.749590,-37.395980,2025-01-04 16:20:00,NOAA-21,PARAÍBA,SÃO JOSÉ DE ESPINHARAS,Caatinga,7,1.25,1.000,7.30
-10.240420,-42.447720,2025-01-04 16:20:00,NOAA-21,BAHIA,PILÃO ARCADO,Caatinga,2,0.68,1.000,13.40
-11.769430,-38.677730,2025-01-04 16:17:00,NOAA-21,BAHIA,ÁGUA FRIA,Caatinga,28,0.00,1.000,6.50
-7.885250,-50.728160,2025-01-04 16:20:00,NOAA-21,PARÁ,CUMARU DO NORTE,Amazônia,0,1.41,0.020,2.80
-4.342630,-40.700680,2025-01-04 16:20:00,NOAA-21,CEARÁ,IPU,Caatinga,0,4.29,0.270,6.60
-14.560150,-40.174920,2025-01-04 16:17:00,NOAA-21,BAHIA,IGUAÍ,Mata Atlântica,4,0.33,0.750,9.10
-13.660790,-39.882650,2025-01-04 16:17:00,NOAA-21,BAHIA,JEQUIÉ,Mata Atlântica,23,0.00,1.000,52.40
-3.702250,-39.836420,2025-01-04 16:20:00,NOAA-21,CEARÁ,IRAUÇUBA,Caatinga,0,0.39,0.850,7.60
-10.828600,-42.823490,2025-01-04 17:06:00,NOAA-20,BAHIA,XIQUE-XIQUE,Cerrado,2,0.00,0.760,6.20
3.433100,-60.413530,2025-01-04 17:13:00,NOAA-20,RORAIMA,BOA VISTA,Amazônia,2,2.93,0.880,6.20
-13.269510,-57.145400,2025-01-04 17:06:00,NOAA-20,MATO GROSSO,NOVA MARINGÁ,Amazônia,0,21.25,0.000,11.70
-9.800330,-42.204940,2025-01-04 17:06:00,NOAA-20,BAHIA,REMANSO,Caatinga,1,2.75,1.000,13.70
-4.838060,-48.867970,2025-01-04 17:09:00,NOAA-20,PARÁ,BOM JESUS DO TOCANTINS,Amazônia,0,9.51,0.000,2.50
-6.228230,-44.829580,2025-01-04 17:09:00,NOAA-20,MARANHÃO,MIRADOR,Cerrado,0,0.00,0.330,10.10
-12.294710,-47.316520,2025-01-04 17:06:00,NOAA-20,TOCANTINS,CONCEIÇÃO DO TOCANTINS,Cerrado,0,12.40,0.000,6.00
-13.265790,-57.144680,2025-01-04 17:06:00,NOAA-20,MATO GROSSO,NOVA MARINGÁ,Amazônia,0,21.24,0.000,7.20
-10.461720,-49.655900,2025-01-04 17:09:00,NOAA-20,TOCANTINS,PIUM,Cerrado,0,9.91,0.000,7.80
-5.466680,-44.449540,2025-01-04 17:09:00,NOAA-20,MARANHÃO,PRESIDENTE DUTRA,Cerrado,0,0.00,0.290,5.40
-1.683030,-45.905670,2025-01-04 17:11:00,NOAA-20,MARANHÃO,AMAPÁ DO MARANHÃO,Amazônia,3,9.21,0.220,6.40
-13.520170,-40.355250,2025-01-04 17:06:00,NOAA-20,BAHIA,LAJEDO DO TABOCAL,Mata Atlântica,4,0.00,0.980,6.90
-28.048870,-49.170090,2025-01-04 17:02:00,NOAA-20,SANTA CATARINA,SANTA ROSA DE LIMA,Mata Atlântica,2,0.00,0.010,4.80
-28.635980,-56.045410,2025-01-04 17:02:00,NOAA-20,RIO GRANDE DO SUL,SÃO BORJA,Pampa,11,0.00,0.780,15.90
-30.419780,-53.231660,2025-01-04 17:53:00,NOAA-21,RIO GRANDE DO SUL,CAÇAPAVA DO SUL,Pampa,2,0.00,1.000,7.80
-27.680170,-51.224710,2025-01-04 17:56:00,NOAA-21,SANTA CATARINA,CELSO RAMOS,Mata Atlântica,2,0.00,0.580,48.60
-27.677400,-50.053760,2025-01-04 17:56:00,NOAA-21,SANTA CATARINA,LAGES,Mata Atlântica,2,0.00,0.070,5.80
1.345050,-60.302460,2025-01-04 18:04:00,NOAA-21,RORAIMA,CARACARAÍ,Amazônia,0,0.77,0.520,21.80
4.388560,-60.480350,2025-01-04 18:04:00,NOAA-21,RORAIMA,UIRAMUTÃ,Amazônia,0,3.06,0.500,5.00
-25.055280,-50.891530,2025-01-04 17:56:00,NOAA-21,PARANÁ,IVAÍ,Mata Atlântica,1,0.00,0.050,18.10
-30.898140,-53.495090,2025-01-04 18:19:00,NPP-375,RIO GRANDE DO SUL,CAÇAPAVA DO SUL,Pampa,14,0.00,1.000,3.30
-10.084800,-36.414101,2025-01-04 23:14:00,METOP-B,ALAGOAS,PENEDO,Caatinga,,0.00,1.000,
-6.078800,-37.301000,2025-01-05 00:10:00,GOES-16,PARAÍBA,BELÉM DO BREJO DO CRUZ,Caatinga,0,0.00,1.000,79.60
-2.942000,-40.057899,2025-01-05 00:14:00,METOP-C,CEARÁ,ACARAÚ,Caatinga,,0.00,0.940,
-6.075450,-37.306540,2025-01-05 03:23:00,NOAA-21,PARAÍBA,BELÉM DO BREJO DO CRUZ,Caatinga,0,0.00,1.000,5.90
-4.940420,-38.724890,2025-01-05 03:46:00,NPP-375D,CEARÁ,QUIXADÁ,Caatinga,24,0.00,1.000,1.10
-7.123540,-40.165790,2025-01-05 03:49:00,NPP-375D,CEARÁ,ARARIPE,Caatinga,19,0.00,1.000,1.30
-2.940010,-40.181980,2025-01-05 03:49:00,NPP-375D,CEARÁ,CRUZ,Caatinga,,0.18,1.000,1.50
-22.260280,-56.828220,2025-01-05 04:16:00,NOAA-20,MATO GROSSO DO SUL,BELA VISTA,Cerrado,2,0.00,0.520,0.90
-11.086080,-41.659630,2025-01-05 04:12:00,NOAA-20,BAHIA,SÃO GABRIEL,Caatinga,5,1.10,1.000,1.20
-12.403970,-41.488650,2025-01-05 04:14:00,NOAA-20,BAHIA,PALMEIRAS,Caatinga,20,0.00,1.000,1.10
-10.322400,-42.421010,2025-01-05 04:12:00,NOAA-20,BAHIA,XIQUE-XIQUE,Caatinga,3,4.85,0.620,2.50
-9.742320,-37.535950,2025-01-05 04:12:00,NOAA-20,ALAGOAS,PÃO DE AÇÚCAR,Caatinga,19,0.00,,2.60
-14.809790,-42.841750,2025-01-05 04:14:00,NOAA-20,MINAS GERAIS,ESPINOSA,Cerrado,0,15.84,0.000,1.00
-15.569740,-47.857770,2025-01-05 04:14:00,NOAA-20,DISTRITO FEDERAL,BRASÍLIA,Cerrado,2,16.74,,0.60
-11.893150,-46.945370,2025-01-05 04:14:00,NOAA-20,TOCANTINS,DIANÓPOLIS,Cerrado,0,28.66,0.000,0.90
-11.585790,-44.862410,2025-01-05 04:14:00,NOAA-20,BAHIA,RIACHÃO DAS NEVES,Cerrado,0,8.55,0.020,0.40
-17.265570,-51.058130,2025-01-05 05:08:00,NOAA-21,GOIÁS,RIO VERDE,Cerrado,0,3.35,0.010,1.30
-17.566450,-52.554180,2025-01-05 13:16:00,TERRA_M-T,GOIÁS,MINEIROS,Cerrado,0,8.94,,13.50
-7.953120,-37.051100,2025-01-05 15:07:00,NOAA-20,PARAÍBA,MONTEIRO,Caatinga,8,0.00,1.000,4.40
-10.748760,-37.233940,2025-01-05 15:07:00,NOAA-20,SERGIPE,RIACHUELO,Mata Atlântica,40,0.00,1.000,25.50
-12.351090,-38.931750,2025-01-05 16:00:00,NOAA-21,BAHIA,SÃO GONÇALO DOS CAMPOS,Caatinga,11,0.00,1.000,17.40
-9.660140,-36.723080,2025-01-05 16:00:00,NOAA-21,ALAGOAS,CRAÍBAS,Caatinga,26,0.00,1.000,6.40
-6.682840,-38.153850,2025-01-05 16:02:00,NOAA-21,PARAÍBA,SOUSA,Caatinga,15,0.98,0.990,4.60
-10.331010,-38.032270,2025-01-05 16:00:00,NOAA-21,BAHIA,CORONEL JOÃO SÁ,Caatinga,40,0.00,1.000,7.30
-14.068390,-39.275580,2025-01-05 16:00:00,NOAA-21,BAHIA,CAMAMU,Mata Atlântica,20,1.10,0.540,7.80
-13.737530,-44.708950,2025-01-05 16:00:00,NOAA-21,BAHIA,JABORANDI,Cerrado,0,37.07,0.000,18.70
-12.773420,-43.356040,2025-01-05 16:00:00,NOAA-21,BAHIA,SÍTIO DO MATO,Cerrado,0,1.92,0.320,6.30
-7.974010,-37.254550,2025-01-05 16:00:00,NOAA-21,PERNAMBUCO,SERTÂNIA,Caatinga,8,0.00,1.000,10.00
-2.710560,-45.617170,2025-01-05 16:02:00,NOAA-21,MARANHÃO,SANTA HELENA,Amazônia,1,0.76,0.070,8.60
-8.123900,-37.301530,2025-01-05 16:00:00,NOAA-21,PERNAMBUCO,SERTÂNIA,Caatinga,8,0.00,1.000,2.60
-2.915010,-41.919280,2025-01-05 16:02:00,NOAA-21,MARANHÃO,ARAIOSES,Caatinga,,0.10,0.650,9.90
-6.926770,-35.027680,2025-01-05 16:02:00,NOAA-21,PARAÍBA,SANTA RITA,Mata Atlântica,,0.00,1.000,6.30
-10.387190,-36.476330,2025-01-05 16:00:00,NOAA-21,ALAGOAS,PIAÇABUÇU,Mata Atlântica,,0.00,1.000,4.30
-5.195560,-38.968400,2025-01-05 16:02:00,NOAA-21,CEARÁ,BANABUIÚ,Caatinga,29,0.00,1.000,8.40
-12.904680,-38.787410,2025-01-05 16:00:00,NOAA-21,BAHIA,SALINAS DA MARGARIDA,Mata Atlântica,,0.90,0.740,3.40
-6.458450,-39.613670,2025-01-05 16:02:00,NOAA-21,CEARÁ,JUCÁS,Caatinga,7,0.00,1.000,8.30
-2.048450,-46.187210,2025-01-05 16:02:00,NOAA-21,MARANHÃO,JUNCO DO MARANHÃO,Amazônia,0,0.40,0.140,5.00
-6.238720,-39.621100,2025-01-05 16:02:00,NOAA-21,CEARÁ,ACOPIARA,Caatinga,16,0.00,1.000,8.30
-2.941050,-42.124560,2025-01-05 16:02:00,NOAA-21,MARANHÃO,ARAIOSES,Cerrado,,0.22,0.540,8.00
-2.985260,-40.645940,2025-01-05 16:02:00,NOAA-21,CEARÁ,CAMOCIM,Caatinga,,0.00,0.750,138.80
-7.580310,-36.333600,2025-01-05 16:00:00,NOAA-21,PARAÍBA,SÃO DOMINGOS DO CARIRI,Caatinga,14,0.00,1.000,3.30
-13.146210,-39.215520,2025-01-05 16:00:00,NOAA-21,BAHIA,JAGUARIPE,Mata Atlântica,10,0.50,0.920,3.60
-14.546930,-40.171020,2025-01-05 15:58:00,NOAA-21,BAHIA,IGUAÍ,Mata Atlântica,4,1.50,0.990,4.90
-6.563320,-37.878930,2025-01-05 16:02:00,NOAA-21,PARAÍBA,LAGOA,Caatinga,0,0.18,0.490,10.00
-7.144860,-37.258590,2025-01-05 16:02:00,NOAA-21,PARAÍBA,SÃO JOSÉ DO BONFIM,Caatinga,8,0.00,1.000,3.60
-2.549630,-44.088170,2025-01-05 16:02:00,NOAA-21,MARANHÃO,SÃO JOSÉ DE RIBAMAR,Amazônia,,0.69,,10.50
-12.055050,-40.013210,2025-01-05 16:24:00,NPP-375,BAHIA,IPIRÁ,Caatinga,23,0.00,1.000,8.40
-3.651730,-39.931200,2025-01-05 16:26:00,NPP-375,CEARÁ,MIRAÍMA,Caatinga,1,0.00,0.830,4.30
-4.078940,-41.662880,2025-01-05 16:26:00,NPP-375,PIAUÍ,PIRACURUCA,Caatinga,4,0.14,0.940,3.80
-4.313570,-39.892700,2025-01-05 16:26:00,NPP-375,CEARÁ,SANTA QUITÉRIA,Caatinga,2,0.00,0.980,4.20
-2.538770,-45.292060,2025-01-05 16:28:00,NPP-375,MARANHÃO,PRESIDENTE SARNEY,Amazônia,0,0.75,0.580,3.00
-2.072140,-45.916170,2025-01-05 16:28:00,NPP-375,MARANHÃO,GOVERNADOR NUNES FREIRE,Amazônia,0,0.79,0.090,4.30
-11.562140,-44.825800,2025-01-05 16:26:00,NPP-375,BAHIA,RIACHÃO DAS NEVES,Cerrado,0,8.26,0.020,22.90
-4.753080,-46.604820,2025-01-05 16:26:00,NPP-375,MARANHÃO,BOM JESUS DAS SELVAS,Amazônia,0,3.75,0.030,28.40
-12.513890,-38.984580,2025-01-05 16:24:00,NPP-375,BAHIA,CONCEIÇÃO DA FEIRA,Mata Atlântica,,0.09,1.000,8.70
-2.458740,-45.973440,2025-01-05 16:28:00,NPP-375,MARANHÃO,MARANHÃOZINHO,Amazônia,0,1.04,0.010,4.00
-2.661120,-45.565870,2025-01-05 16:28:00,NPP-375,MARANHÃO,SANTA HELENA,Amazônia,0,0.16,0.250,13.50
-2.077920,-45.886910,2025-01-05 16:28:00,NPP-375,MARANHÃO,GOVERNADOR NUNES FREIRE,Amazônia,0,0.72,0.100,5.50
-4.981160,-38.602750,2025-01-05 16:26:00,NPP-375,CEARÁ,IBICUITINGA,Caatinga,19,0.00,1.000,9.30
-4.269050,-41.879810,2025-01-05 16:26:00,NPP-375,PIAUÍ,PIRIPIRI,Caatinga,2,0.64,0.610,3.50
-5.949250,-36.202710,2025-01-05 16:26:00,NPP-375,RIO GRANDE DO NORTE,SÃO TOMÉ,Caatinga,9,0.00,1.000,2.40
-2.140260,-46.162560,2025-01-05 16:28:00,NPP-375,MARANHÃO,CENTRO NOVO DO MARANHÃO,Amazônia,0,0.67,0.030,1.40
-1.618400,-45.421300,2025-01-05 16:28:00,NPP-375,MARANHÃO,TURIAÇU,Amazônia,1,0.76,0.490,5.60
-4.614960,-39.700250,2025-01-05 16:26:00,NPP-375,CEARÁ,ITATIRA,Caatinga,28,0.00,1.000,11.50
-3.350090,-40.559080,2025-01-05 16:26:00,NPP-375,CEARÁ,URUOCA,Caatinga,2,0.00,0.430,4.80
-8.487910,-35.026290,2025-01-05 16:26:00,NPP-375,PERNAMBUCO,IPOJUCA,Mata Atlântica,,0.00,1.000,2.10
-4.907170,-44.289190,2025-01-05 16:26:00,NPP-375,MARANHÃO,CODÓ,Cerrado,1,4.09,0.620,3.40
-4.084590,-43.965360,2025-01-05 16:26:00,NPP-375,MARANHÃO,COROATÁ,Cerrado,2,5.55,0.000,3.30
-3.278220,-39.475520,2025-01-05 16:26:00,NPP-375,CEARÁ,TRAIRI,Caatinga,22,0.00,0.890,2.20
-7.974270,-35.131710,2025-01-05 16:26:00,NPP-375,PERNAMBUCO,PAUDALHO,Mata Atlântica,26,0.00,1.000,3.80
-30.663780,-52.349070,2025-01-05 16:20:00,NPP-375,RIO GRANDE DO SUL,ENCRUZILHADA DO SUL,Pampa,3,0.09,0.190,25.30
-2.519670,-45.524360,2025-01-05 16:28:00,NPP-375,MARANHÃO,SANTA HELENA,Amazônia,0,0.10,0.390,3.50
-1.679370,-45.910090,2025-01-05 16:28:00,NPP-375,MARANHÃO,AMAPÁ DO MARANHÃO,Amazônia,0,0.00,0.990,23.50
-3.932860,-44.017710,2025-01-05 16:26:00,NPP-375,MARANHÃO,COROATÁ,Cerrado,2,4.30,0.010,5.80
-7.340550,-40.764380,2025-01-05 16:26:00,NPP-375,PIAUÍ,FRANCISCO MACEDO,Caatinga,3,1.87,0.940,3.00
-7.350910,-39.828560,2025-01-05 16:47:00,NOAA-20,PERNAMBUCO,EXU,Caatinga,8,0.00,0.980,12.70
-30.388270,-56.193480,2025-01-05 16:41:00,NOAA-20,RIO GRANDE DO SUL,QUARAÍ,Pampa,4,0.10,1.000,5.70
-6.565410,-37.876470,2025-01-05 16:47:00,NOAA-20,PARAÍBA,LAGOA,Caatinga,0,0.20,0.420,5.90
-30.659300,-52.354040,2025-01-05 16:41:00,NOAA-20,RIO GRANDE DO SUL,ENCRUZILHADA DO SUL,Pampa,3,0.04,0.190,18.90
-1.974780,-45.732920,2025-01-05 16:49:00,NOAA-20,MARANHÃO,GOVERNADOR NUNES FREIRE,Amazônia,0,0.40,0.660,8.30
-4.644510,-45.177340,2025-01-05 16:49:00,NOAA-20,MARANHÃO,LAGO DA PEDRA,Cerrado,0,10.83,0.040,6.70
-8.111530,-38.967830,2025-01-05 16:47:00,NOAA-20,PERNAMBUCO,SALGUEIRO,Caatinga,6,0.00,1.000,5.40
-1.726590,-45.974270,2025-01-05 16:49:00,NOAA-20,MARANHÃO,AMAPÁ DO MARANHÃO,Amazônia,0,0.14,1.000,3.40
-8.498790,-40.627400,2025-01-05 16:47:00,NOAA-20,PERNAMBUCO,DORMENTES,Caatinga,17,0.56,1.000,7.70
-4.769760,-44.743940,2025-01-05 16:49:00,NOAA-20,MARANHÃO,POÇÃO DE PEDRAS,Cerrado,0,6.54,0.030,20.60
-18.762550,-51.724540,2025-01-05 16:45:00,NOAA-20,GOIÁS,APORÉ,Cerrado,0,1.46,0.140,12.60
-2.035280,-45.145100,2025-01-05 16:49:00,NOAA-20,MARANHÃO,SERRANO DO MARANHÃO,Amazônia,6,0.10,0.890,6.40
-5.666630,-38.482340,2025-01-05 16:49:00,NOAA-20,CEARÁ,JAGUARIBARA,Caatinga,12,0.00,1.000,5.00
-3.473910,-43.328200,2025-01-05 16:49:00,NOAA-20,MARANHÃO,URBANO SANTOS,Cerrado,0,1.02,0.280,9.00
-13.450130,-40.874830,2025-01-05 16:45:00,NOAA-20,BAHIA,IRAMAIA,Caatinga,14,1.32,1.000,5.70
-27.104140,-50.838140,2025-01-05 16:43:00,NOAA-20,SANTA CATARINA,FRAIBURGO,Mata Atlântica,2,0.00,0.130,8.70
-8.171980,-36.420620,2025-01-05 16:47:00,NOAA-20,PERNAMBUCO,BELO JARDIM,Caatinga,9,0.00,1.000,3.20
-12.225950,-44.085270,2025-01-05 16:47:00,NOAA-20,BAHIA,CRISTÓPOLIS,Cerrado,0,3.10,0.040,3.90
-2.362470,-45.612380,2025-01-05 16:49:00,NOAA-20,MARANHÃO,TURILÂNDIA,Amazônia,0,0.70,0.240,22.70
3.859240,-60.323130,2025-01-05 16:52:00,NOAA-20,RORAIMA,NORMANDIA,Amazônia,0,7.57,0.150,7.40
-3.081350,-45.502210,2025-01-05 16:49:00,NOAA-20,MARANHÃO,PEDRO DO ROSÁRIO,Amazônia,0,0.20,0.040,2.60
-4.841320,-45.242980,2025-01-05 16:49:00,NOAA-20,MARANHÃO,LAGO DA PEDRA,Cerrado,1,4.95,0.150,4.70
3.673700,-60.274360,2025-01-05 18:10:00,NPP-375,RORAIMA,NORMANDIA,Amazônia,1,1.35,0.970,10.70
3.669240,-60.273130,2025-01-05 18:10:00,NPP-375,RORAIMA,NORMANDIA,Amazônia,1,1.37,0.990,19.50
-21.557810,-54.207600,2025-01-05 18:02:00,NPP-375,MATO GROSSO DO SUL,NOVA ALVORADA DO SUL,Cerrado,2,0.00,0.430,13.70
3.859220,-60.335430,2025-01-05 18:10:00,NPP-375,RORAIMA,NORMANDIA,Amazônia,0,7.27,0.160,10.10
-21.830560,-56.499300,2025-01-05 17:38:00,NOAA-21,MATO GROSSO DO SUL,BELA VISTA,Cerrado,3,0.00,1.000,4.60
1.762830,-60.481860,2025-01-05 17:43:00,NOAA-21,RORAIMA,CANTÁ,Amazônia,2,4.49,0.180,5.40
3.734780,-60.320010,2025-01-05 17:45:00,NOAA-21,RORAIMA,NORMANDIA,Amazônia,0,1.00,0.830,8.20
4.315800,-60.097270,2025-01-05 17:45:00,NOAA-21,RORAIMA,UIRAMUTÃ,Amazônia,0,11.34,0.040,18.30
3.720160,-60.309950,2025-01-05 17:45:00,NOAA-21,RORAIMA,NORMANDIA,Amazônia,0,1.15,0.850,3.70
3.702680,-60.028100,2025-01-05 17:45:00,NOAA-21,RORAIMA,NORMANDIA,Amazônia,1,3.37,0.870,31.70
-14.458040,-49.790560,2025-01-05 17:51:00,AQUA_M-T,GOIÁS,CRIXÁS,Cerrado,0,1.40,0.010,7.30
-13.160750,-54.857780,2025-01-05 17:51:00,AQUA_M-T,MATO GROSSO,NOVA UBIRATÃ,Amazônia,0,1.52,0.000,18.90
-4.539040,-47.043040,2025-01-05 17:53:00,AQUA_M-T,MARANHÃO,AÇAILÂNDIA,Amazônia,2,1.57,0.330,16.80
-9.705800,-35.948100,2025-01-05 22:10:00,GOES-16,ALAGOAS,MARECHAL DEODORO,Mata Atlântica,,0.00,1.000,131.50
-9.419800,-35.807400,2025-01-05 22:00:00,GOES-16,ALAGOAS,RIO LARGO,Mata Atlântica,66,0.00,1.000,81.30
-10.120600,-36.200699,2025-01-05 23:56:00,METOP-C,ALAGOAS,CORURIPE,Mata Atlântica,,0.00,1.000,
-9.125600,-40.179798,2025-01-05 23:56:00,METOP-C,BAHIA,JUAZEIRO,Caatinga,31,0.00,1.000,
-5.852600,-35.461000,2025-01-06 05:20:00,GOES-16,RIO GRANDE DO NORTE,MACAÍBA,Caatinga,12,0.00,1.000,66.80
-10.735840,-36.855390,2025-01-06 03:32:00,NPP-375D,SERGIPE,PIRAMBU,Mata Atlântica,,0.45,,2.00
-10.596690,-37.019060,2025-01-06 03:55:00,NOAA-20,SERGIPE,CAPELA,Mata Atlântica,,0.38,1.000,7.40
-21.624880,-43.468290,2025-01-06 03:57:00,NOAA-20,MINAS GERAIS,JUIZ DE FORA,Mata Atlântica,1,7.85,,0.70
-10.868530,-40.426950,2025-01-06 03:53:00,NOAA-20,BAHIA,SAÚDE,Caatinga,24,1.22,0.980,3.50
-12.772210,-38.460010,2025-01-06 03:53:00,NOAA-20,BAHIA,CANDEIAS,Mata Atlântica,,0.60,0.660,0.80
-21.558180,-54.202030,2025-01-06 04:50:00,NOAA-21,MATO GROSSO DO SUL,NOVA ALVORADA DO SUL,Cerrado,3,0.00,0.630,2.10
-21.660200,-41.326170,2025-01-06 04:50:00,NOAA-21,RIO DE JANEIRO,CAMPOS DOS GOYTACAZES,Mata Atlântica,0,0.65,0.010,4.10
-23.175910,-52.409340,2025-01-06 04:50:00,NOAA-21,PARANÁ,ALTO PARANÁ,Mata Atlântica,3,0.10,0.510,1.20
-23.596350,-47.437680,2025-01-06 04:50:00,NOAA-21,SÃO PAULO,VOTORANTIM,Mata Atlântica,0,0.11,,1.40
-21.562810,-54.205190,2025-01-06 05:16:00,NPP-375D,MATO GROSSO DO SUL,NOVA ALVORADA DO SUL,Cerrado,3,0.00,0.310,1.80
3.498590,-60.803460,2025-01-06 05:08:00,NPP-375D,RORAIMA,AMAJARI,Amazônia,0,0.00,1.000,1.20
1.349310,-60.039790,2025-01-06 05:10:00,NPP-375D,RORAIMA,CARACARAÍ,Amazônia,0,0.00,0.620,1.20
-18.511070,-53.400220,2025-01-06 05:14:00,NPP-375D,MATO GROSSO DO SUL,COSTA RICA,Cerrado,0,10.60,0.000,2.70
-29.856390,-54.926300,2025-01-06 05:18:00,NPP-375D,RIO GRANDE DO SUL,CACEQUI,Pampa,17,0.00,0.850,1.20
-18.513530,-53.407340,2025-01-06 05:37:00,NOAA-20,MATO GROSSO DO SUL,COSTA RICA,Cerrado,0,10.60,0.000,1.50
3.494300,-60.810670,2025-01-06 05:31:00,NOAA-20,RORAIMA,AMAJARI,Amazônia,0,0.00,1.000,1.30
-18.514010,-53.401740,2025-01-06 05:37:00,NOAA-20,MATO GROSSO DO SUL,COSTA RICA,Cerrado,0,10.60,0.000,1.90
1.349510,-60.033970,2025-01-06 05:31:00,NOAA-20,RORAIMA,CARACARAÍ,Amazônia,0,0.00,0.620,3.10
-9.593650,-38.232820,2025-01-06 12:16:00,TERRA_M-T,BAHIA,PAULO AFONSO,Caatinga,25,2.25,1.000,8.90
-7.756200,-37.557560,2025-01-06 12:16:00,TERRA_M-T,PERNAMBUCO,AFOGADOS DA INGAZEIRA,Caatinga,29,0.20,1.000,14.80
2.609830,-61.314970,2025-01-06 13:52:00,TERRA_M-T,RORAIMA,MUCAJAÍ,Amazônia,0,0.00,0.800,18.70
3.713600,-60.336100,2025-01-06 14:50:00,GOES-16,RORAIMA,NORMANDIA,Amazônia,1,0.00,1.000,88.60
-7.531310,-37.965500,2025-01-06 16:54:00,AQUA_M-T,PARAÍBA,TAVARES,Caatinga,4,1.19,1.000,28.40
-2.863580,-40.471340,2025-01-06 16:07:00,NPP-375,CEARÁ,JIJOCA DE JERICOACOARA,Caatinga,,0.67,1.000,4.30
-6.401540,-38.229170,2025-01-06 16:07:00,NPP-375,RIO GRANDE DO NORTE,TENENTE ANANIAS,Caatinga,2,0.20,1.000,5.90
-2.902400,-41.870650,2025-01-06 16:07:00,NPP-375,MARANHÃO,ARAIOSES,Cerrado,,0.07,0.750,3.70
-5.879670,-38.237740,2025-01-06 16:07:00,NPP-375,CEARÁ,IRACEMA,Caatinga,3,0.66,0.970,9.20
-7.058110,-38.143440,2025-01-06 16:07:00,NPP-375,PARAÍBA,AGUIAR,Caatinga,28,0.00,1.000,3.00
-3.077170,-41.900140,2025-01-06 16:07:00,NPP-375,MARANHÃO,ARAIOSES,Caatinga,1,3.34,0.310,4.50
-6.196630,-37.872970,2025-01-06 16:07:00,NPP-375,RIO GRANDE DO NORTE,ANTÔNIO MARTINS,Caatinga,1,1.35,0.510,9.80
-6.273250,-39.666090,2025-01-06 16:07:00,NPP-375,CEARÁ,ACOPIARA,Caatinga,19,1.85,1.000,6.30
-7.507550,-37.640640,2025-01-06 16:07:00,NPP-375,PARAÍBA,ÁGUA BRANCA,Caatinga,30,0.10,1.000,14.10
-8.244010,-36.720650,2025-01-06 16:05:00,NPP-375,PERNAMBUCO,POÇÃO,Caatinga,15,0.20,1.000,6.50
-3.864070,-41.776390,2025-01-06 16:07:00,NPP-375,PIAUÍ,PIRACURUCA,Caatinga,0,0.47,0.940,55.90
-6.017870,-36.852130,2025-01-06 16:07:00,NPP-375,RIO GRANDE DO NORTE,JUCURUTU,Caatinga,4,0.12,1.000,5.60
-6.979000,-38.579110,2025-01-06 15:41:00,NOAA-21,PARAÍBA,CAJAZEIRAS,Caatinga,27,0.50,1.000,4.60
-2.964300,-39.935650,2025-01-06 15:43:00,NOAA-21,CEARÁ,ITAREMA,Caatinga,,0.56,0.880,28.40
-6.811870,-37.773200,2025-01-06 15:41:00,NOAA-21,PARAÍBA,POMBAL,Caatinga,1,0.97,0.920,3.60
-9.309170,-38.005810,2025-01-06 15:41:00,NOAA-21,ALAGOAS,PARICONHA,Caatinga,21,1.02,1.000,4.20
-2.864440,-40.471970,2025-01-06 15:43:00,NOAA-21,CEARÁ,JIJOCA DE JERICOACOARA,Caatinga,,0.69,1.000,6.10
-3.138430,-41.394850,2025-01-06 16:32:00,NOAA-20,PIAUÍ,LUÍS CORREIA,Caatinga,9,3.18,0.530,5.80
-3.863980,-41.777850,2025-01-06 16:30:00,NOAA-20,PIAUÍ,PIRACURUCA,Caatinga,0,0.48,0.940,8.80
3.738300,-60.373680,2025-01-06 16:34:00,NOAA-20,RORAIMA,NORMANDIA,Amazônia,1,0.00,1.000,9.70
3.595390,-61.234810,2025-01-06 16:34:00,NOAA-20,RORAIMA,AMAJARI,Amazônia,0,0.00,1.000,11.90
-5.882500,-38.235260,2025-01-06 16:30:00,NOAA-20,CEARÁ,IRACEMA,Caatinga,4,0.74,0.880,7.70
-25.215400,-52.401040,2025-01-06 16:26:00,NOAA-20,PARANÁ,LARANJEIRAS DO SUL,Mata Atlântica,2,0.00,0.220,11.10
-4.457780,-37.820590,2025-01-06 16:30:00,NOAA-20,CEARÁ,FORTIM,Caatinga,,2.17,0.660,4.20
-3.392940,-41.947270,2025-01-06 16:32:00,NOAA-20,PIAUÍ,CAXINGÓ,Caatinga,2,25.76,0.000,7.50
4.077970,-59.983230,2025-01-06 16:34:00,NOAA-20,RORAIMA,NORMANDIA,Amazônia,0,0.00,0.350,5.80
-3.969370,-42.138820,2025-01-06 16:30:00,NOAA-20,PIAUÍ,BATALHA,Caatinga,2,0.76,0.710,11.50
-3.198490,-41.300260,2025-01-06 16:32:00,NOAA-20,CEARÁ,GRANJA,Caatinga,17,2.84,0.300,3.20
-7.809380,-37.066160,2025-01-06 16:30:00,NOAA-20,PARAÍBA,MONTEIRO,Caatinga,16,0.00,1.000,3.90
-3.559250,-41.368880,2025-01-06 16:32:00,NOAA-20,PIAUÍ,COCAL,Caatinga,3,4.03,0.170,3.80
3.458880,-60.773860,2025-01-06 16:34:00,NOAA-20,RORAIMA,BOA VISTA,Amazônia,0,0.00,1.000,6.00
-30.348370,-54.285920,2025-01-06 18:28:00,AQUA_M-T,RIO GRANDE DO SUL,SÃO GABRIEL,Pampa,4,0.00,1.000,10.60
4.263120,-61.001140,2025-01-06 18:34:00,AQUA_M-T,RORAIMA,PACARAIMA,Amazônia,0,0.00,0.500,11.60
-29.540060,-54.017040,2025-01-06 18:28:00,AQUA_M-T,RIO GRANDE DO SUL,SÃO MARTINHO DA SERRA,Mata Atlântica,8,0.00,0.530,9.60
-29.863680,-54.942520,2025-01-06 18:28:00,AQUA_M-T,RIO GRANDE DO SUL,CACEQUI,Pampa,16,0.00,1.000,10.80
4.048290,-59.941160,2025-01-06 17:51:00,NPP-375,RORAIMA,NORMANDIA,Amazônia,0,0.00,0.350,11.70
-23.788010,-48.860760,2025-01-06 17:43:00,NPP-375,SÃO PAULO,ITAPEVA,Cerrado,1,0.00,0.020,5.70
4.122000,-61.177300,2025-01-06 17:51:00,NPP-375,RORAIMA,PACARAIMA,Amazônia,0,0.00,0.670,4.60
-31.620580,-53.298560,2025-01-06 17:43:00,NPP-375,RIO GRANDE DO SUL,PINHEIRO MACHADO,Pampa,14,0.00,0.910,6.10
4.285870,-60.220860,2025-01-06 17:51:00,NPP-375,RORAIMA,UIRAMUTÃ,Amazônia,0,0.09,0.390,17.10
-20.120440,-50.420090,2025-01-06 17:43:00,NPP-375,SÃO PAULO,TURMALINA,Mata Atlântica,0,3.05,0.030,15.10
-20.117280,-50.414350,2025-01-06 17:43:00,NPP-375,SÃO PAULO,TURMALINA,Mata Atlântica,0,3.19,0.040,18.10
3.978960,-60.510010,2025-01-06 17:51:00,NPP-375,RORAIMA,PACARAIMA,Amazônia,0,0.00,0.960,8.60
3.698940,-60.351440,2025-01-06 17:51:00,NPP-375,RORAIMA,NORMANDIA,Amazônia,0,0.00,1.000,11.10
-29.456650,-54.067480,2025-01-06 17:17:00,NOAA-21,RIO GRANDE DO SUL,SÃO MARTINHO DA SERRA,Mata Atlântica,7,0.00,0.590,3.70
4.086740,-60.778100,2025-01-06 17:26:00,NOAA-21,RORAIMA,PACARAIMA,Amazônia,0,0.00,0.690,5.60
-27.586570,-50.844670,2025-01-06 17:17:00,NOAA-21,SANTA CATARINA,SÃO JOSÉ DO CERRITO,Mata Atlântica,4,0.00,0.330,30.10
-29.546600,-50.917420,2025-01-06 17:15:00,NOAA-21,RIO GRANDE DO SUL,SANTA MARIA DO HERVAL,Mata Atlântica,4,0.00,0.310,8.10
-25.131840,-50.821240,2025-01-06 17:17:00,NOAA-21,PARANÁ,GUAMIRANGA,Mata Atlântica,3,0.00,0.170,3.20
-3.003470,-57.133080,2025-01-06 17:24:00,NOAA-21,AMAZONAS,BARREIRINHA,Amazônia,0,15.20,0.000,5.10
-29.504520,-50.417590,2025-01-06 17:15:00,NOAA-21,RIO GRANDE DO SUL,SÃO FRANCISCO DE PAULA,Mata Atlântica,3,0.00,0.280,11.60
-21.556850,-54.194650,2025-01-06 17:19:00,NOAA-21,MATO GROSSO DO SUL,NOVA ALVORADA DO SUL,Cerrado,3,0.00,0.790,10.00
-29.567050,-50.492960,2025-01-06 18:04:00,NOAA-20,RIO GRANDE DO SUL,ROLANTE,Mata Atlântica,3,0.00,0.350,6.10
-27.611720,-51.084370,2025-01-06 18:04:00,NOAA-20,SANTA CATARINA,ABDON BATISTA,Mata Atlântica,4,0.00,0.890,21.90
-29.861240,-54.936430,2025-01-06 18:04:00,NOAA-20,RIO GRANDE DO SUL,CACEQUI,Pampa,16,0.00,1.000,4.40
-27.606840,-51.087780,2025-01-06 18:04:00,NOAA-20,SANTA CATARINA,ABDON BATISTA,Mata Atlântica,4,0.00,0.510,10.70
4.073610,-59.990970,2025-01-06 18:13:00,NOAA-20,RORAIMA,NORMANDIA,Amazônia,0,0.00,0.360,16.10
-10.000000,-36.350000,2025-01-06 22:00:00,MSG-03,ALAGOAS,TEOTÔNIO VILELA,Caatinga,,4.92,1.000,
-8.489700,-35.194700,2025-01-06 23:30:00,GOES-16,PERNAMBUCO,SIRINHAÉM,Mata Atlântica,9,0.00,0.940,67.00
-30.297750,-54.725620,2025-01-07 17:21:00,NPP-375,RIO GRANDE DO SUL,SÃO GABRIEL,Pampa,11,0.00,1.000,12.80
-9.853700,-36.273600,2025-01-07 00:00:00,GOES-16,ALAGOAS,CAMPO ALEGRE,Mata Atlântica,0,0.00,1.000,119.10
-12.370900,-52.470100,2025-01-07 00:40:00,GOES-16,MATO GROSSO,QUERÊNCIA,Amazônia,0,2.93,0.010,58.50
-8.537790,-35.750120,2025-01-07 00:32:00,TERRA_M-M,PERNAMBUCO,BONITO,Mata Atlântica,20,0.00,1.000,32.00
-7.680620,-35.265410,2025-01-07 03:12:00,NPP-375D,PERNAMBUCO,VICÊNCIA,Mata Atlântica,52,0.20,1.000,1.50
-10.536770,-36.884170,2025-01-07 03:12:00,NPP-375D,SERGIPE,JAPARATUBA,Mata Atlântica,,0.00,1.000,3.20
-11.958360,-41.346240,2025-01-07 03:36:00,NOAA-20,BAHIA,BONITO,Caatinga,20,0.00,0.870,1.20
-10.223130,-36.382570,2025-01-07 03:34:00,NOAA-20,ALAGOAS,PENEDO,Mata Atlântica,,0.00,0.860,2.20
-8.065160,-35.123970,2025-01-07 03:34:00,NOAA-20,PERNAMBUCO,SÃO LOURENÇO DA MATA,Mata Atlântica,8,0.00,1.000,1.70
-9.784530,-41.769440,2025-01-07 03:34:00,NOAA-20,BAHIA,SENTO SÉ,Caatinga,0,0.30,0.100,4.70
-23.337550,-46.774060,2025-01-07 03:38:00,NOAA-20,SÃO PAULO,CAIEIRAS,Mata Atlântica,0,3.91,0.020,0.90
-9.866340,-37.100770,2025-01-07 03:34:00,NOAA-20,ALAGOAS,TRAIPU,Caatinga,23,0.00,1.000,1.40
-10.087930,-36.157840,2025-01-07 03:34:00,NOAA-20,ALAGOAS,CORURIPE,Mata Atlântica,,0.00,1.000,2.40
-8.527520,-35.744280,2025-01-07 05:16:00,AQUA_M-M,PERNAMBUCO,BONITO,Mata Atlântica,22,0.00,1.000,26.20
-10.095900,-55.409240,2025-01-07 04:55:00,NPP-375D,MATO GROSSO,NOVO MUNDO,Amazônia,0,5.01,0.030,0.70
-21.830800,-56.393010,2025-01-07 04:55:00,NPP-375D,MATO GROSSO DO SUL,BELA VISTA,Cerrado,5,0.00,0.670,0.60
-12.373740,-52.491620,2025-01-07 04:55:00,NPP-375D,MATO GROSSO,QUERÊNCIA,Amazônia,0,3.43,0.010,1.20
4.340650,-60.876130,2025-01-07 04:50:00,NPP-375D,RORAIMA,PACARAIMA,Amazônia,2,0.00,0.550,0.70
4.358870,-60.877330,2025-01-07 04:50:00,NPP-375D,RORAIMA,PACARAIMA,Amazônia,2,0.00,0.750,1.30
2.030260,-60.877410,2025-01-07 04:50:00,NPP-375D,RORAIMA,CANTÁ,Amazônia,2,0.00,0.700,1.80
-19.336060,-54.167950,2025-01-07 04:55:00,NPP-375D,MATO GROSSO DO SUL,CAMAPUÃ,Cerrado,1,4.87,0.070,4.40
-20.965120,-49.761830,2025-01-07 05:18:00,NOAA-20,SÃO PAULO,JOSÉ BONIFÁCIO,Mata Atlântica,3,0.00,0.080,1.00
2.029420,-60.876210,2025-01-07 05:14:00,NOAA-20,RORAIMA,CANTÁ,Amazônia,2,0.00,0.640,3.30
-9.561980,-38.287880,2025-01-07 04:27:00,NOAA-21,BAHIA,PAULO AFONSO,Caatinga,11,0.00,1.000,1.40
-23.237000,-51.283130,2025-01-07 04:31:00,NOAA-21,PARANÁ,CAMBÉ,Mata Atlântica,3,0.00,0.600,1.40
-20.716020,-55.561230,2025-01-07 04:31:00,NOAA-21,MATO GROSSO DO SUL,ANASTÁCIO,Cerrado,3,0.00,0.820,1.10
-21.838060,-56.394130,2025-01-07 04:31:00,NOAA-21,MATO GROSSO DO SUL,BELA VISTA,Cerrado,5,0.00,0.690,1.10
-21.194510,-44.939060,2025-01-07 04:31:00,NOAA-21,MINAS GERAIS,IJACI,Mata Atlântica,0,1.89,,1.80
-21.558970,-54.199750,2025-01-07 04:31:00,NOAA-21,MATO GROSSO DO SUL,NOVA ALVORADA DO SUL,Cerrado,4,0.00,0.700,5.90
-22.145300,-53.041980,2025-01-07 12:59:00,TERRA_M-T,MATO GROSSO DO SUL,ANAURILÂNDIA,Cerrado,4,0.00,1.000,43.80
-6.846550,-38.526000,2025-01-07 15:24:00,NOAA-21,PARAÍBA,CAJAZEIRAS,Caatinga,21,10.75,0.370,4.10
-9.115040,-36.947350,2025-01-07 15:22:00,NOAA-21,PERNAMBUCO,IATI,Caatinga,9,0.00,1.000,11.10
-7.827890,-38.116230,2025-01-07 15:22:00,NOAA-21,PERNAMBUCO,TRIUNFO,Caatinga,0,0.00,1.000,12.20
-8.571260,-36.797360,2025-01-07 15:22:00,NOAA-21,PERNAMBUCO,VENTUROSA,Caatinga,10,0.26,1.000,3.60
-9.852540,-38.190400,2025-01-07 15:22:00,NOAA-21,BAHIA,SANTA BRÍGIDA,Caatinga,17,0.00,1.000,15.80
-8.677720,-39.588510,2025-01-07 15:22:00,NOAA-21,BAHIA,CURAÇÁ,Caatinga,0,0.00,1.000,7.80
-8.446080,-37.946230,2025-01-07 15:22:00,NOAA-21,PERNAMBUCO,BETÂNIA,Caatinga,0,0.00,1.000,8.70
-3.330920,-39.908390,2025-01-07 15:24:00,NOAA-21,CEARÁ,AMONTADA,Caatinga,2,3.26,0.880,11.10
-8.332580,-36.341530,2025-01-07 15:22:00,NOAA-21,PERNAMBUCO,BELO JARDIM,Caatinga,10,0.00,1.000,3.90
-4.037420,-38.994000,2025-01-07 15:24:00,NOAA-21,CEARÁ,CARIDADE,Caatinga,6,0.00,1.000,7.10
-8.106500,-37.292210,2025-01-07 15:22:00,NOAA-21,PERNAMBUCO,SERTÂNIA,Caatinga,6,0.65,1.000,7.00
-4.650690,-39.795480,2025-01-07 15:24:00,NOAA-21,CEARÁ,SANTA QUITÉRIA,Caatinga,0,0.10,1.000,5.50
-10.853290,-37.817620,2025-01-07 15:22:00,NOAA-21,SERGIPE,SIMÃO DIAS,Caatinga,40,0.00,1.000,7.10
-8.197440,-37.601170,2025-01-07 15:22:00,NOAA-21,PERNAMBUCO,CUSTÓDIA,Caatinga,6,0.00,1.000,3.70
-7.943080,-37.801900,2025-01-07 15:22:00,NOAA-21,PERNAMBUCO,FLORES,Caatinga,5,0.00,1.000,17.20
-22.153510,-53.053360,2025-01-07 17:28:00,AQUA_M-T,MATO GROSSO DO SUL,ANAURILÂNDIA,Cerrado,4,0.00,1.000,72.30
-19.338060,-52.331500,2025-01-07 17:30:00,AQUA_M-T,MATO GROSSO DO SUL,CASSILÂNDIA,Cerrado,0,5.63,0.110,41.60
-5.475340,-46.271070,2025-01-07 17:34:00,AQUA_M-T,MARANHÃO,GRAJAÚ,Amazônia,1,6.25,0.230,8.60
-4.616960,-44.438810,2025-01-07 17:34:00,AQUA_M-T,MARANHÃO,LIMA CAMPOS,Cerrado,2,21.77,0.000,12.60
-10.080750,-38.514610,2025-01-07 15:48:00,NPP-375,BAHIA,JEREMOABO,Caatinga,0,0.00,1.000,33.00
-10.519220,-36.729770,2025-01-07 15:48:00,NPP-375,SERGIPE,PACATUBA,Mata Atlântica,,0.00,1.000,4.70
-8.680610,-35.699730,2025-01-07 15:48:00,NPP-375,PERNAMBUCO,CATENDE,Mata Atlântica,26,0.00,1.000,7.90
-7.112460,-35.177410,2025-01-07 15:48:00,NPP-375,PARAÍBA,SAPÉ,Mata Atlântica,27,0.00,1.000,6.70
-10.215430,-39.301740,2025-01-07 15:48:00,NPP-375,BAHIA,MONTE SANTO,Caatinga,3,0.00,1.000,12.00
-11.680360,-38.103920,2025-01-07 15:45:00,NPP-375,BAHIA,APORÁ,Mata Atlântica,31,0.00,1.000,35.50
-3.979610,-39.653420,2025-01-07 15:50:00,NPP-375,CEARÁ,TEJUÇUOCA,Caatinga,3,1.42,1.000,8.50
-9.807630,-41.698040,2025-01-07 15:48:00,NPP-375,BAHIA,SENTO SÉ,Caatinga,0,0.38,0.460,3.10
-12.509500,-38.742790,2025-01-07 15:45:00,NPP-375,BAHIA,SANTO AMARO,Mata Atlântica,,0.00,0.980,4.80
-9.116130,-40.172310,2025-01-07 15:48:00,NPP-375,BAHIA,JUAZEIRO,Caatinga,0,0.00,1.000,3.80
-8.155190,-36.669640,2025-01-07 15:48:00,NPP-375,PERNAMBUCO,JATAÚBA,Caatinga,10,0.00,1.000,19.90
-7.237300,-35.376360,2025-01-07 15:48:00,NPP-375,PARAÍBA,SÃO JOSÉ DOS RAMOS,Mata Atlântica,60,0.00,1.000,7.60
-10.832550,-39.330580,2025-01-07 15:48:00,NPP-375,BAHIA,CANSANÇÃO,Caatinga,42,0.00,1.000,6.20
-9.426240,-36.127960,2025-01-07 15:48:00,NPP-375,ALAGOAS,CAPELA,Mata Atlântica,0,0.00,1.000,5.50
-10.042720,-37.297530,2025-01-07 15:48:00,NPP-375,SERGIPE,GARARU,Caatinga,0,0.00,1.000,5.50
-7.082450,-35.114120,2025-01-07 15:48:00,NPP-375,PARAÍBA,CRUZ DO ESPÍRITO SANTO,Mata Atlântica,19,0.00,1.000,35.00
-6.059810,-38.083670,2025-01-07 15:48:00,NPP-375,RIO GRANDE DO NORTE,FRANCISCO DANTAS,Caatinga,2,1.20,1.000,7.10
-4.347820,-41.208670,2025-01-07 15:50:00,NPP-375,PIAUÍ,PEDRO II,Caatinga,28,5.29,0.690,6.50
-10.885910,-37.999570,2025-01-07 15:45:00,NPP-375,SERGIPE,TOBIAS BARRETO,Caatinga,34,0.00,1.000,22.20
-10.345740,-39.101070,2025-01-07 15:48:00,NPP-375,BAHIA,CANUDOS,Caatinga,25,0.00,1.000,5.60
-4.460380,-37.798520,2025-01-07 15:50:00,NPP-375,CEARÁ,FORTIM,Caatinga,,0.21,1.000,6.40
-4.439590,-38.938580,2025-01-07 16:11:00,NOAA-20,CEARÁ,CAPISTRANO,Caatinga,28,0.00,0.990,4.90
-6.011460,-38.272190,2025-01-07 16:11:00,NOAA-20,CEARÁ,ERERÊ,Caatinga,13,5.07,0.870,6.80
-6.734810,-37.572640,2025-01-07 16:09:00,NOAA-20,PARAÍBA,VISTA SERRANA,Caatinga,3,0.00,1.000,10.20
-6.993400,-38.162750,2025-01-07 16:09:00,NOAA-20,PARAÍBA,SÃO JOSÉ DA LAGOA TAPADA,Caatinga,14,1.81,1.000,7.90
-4.218150,-40.486090,2025-01-07 16:11:00,NOAA-20,CEARÁ,VARJOTA,Caatinga,4,0.00,1.000,6.20
-7.614150,-39.173480,2025-01-07 16:09:00,NOAA-20,CEARÁ,JARDIM,Caatinga,2,21.65,0.020,5.50
-10.295250,-38.520490,2025-01-07 16:09:00,NOAA-20,BAHIA,CANUDOS,Caatinga,27,0.00,1.000,9.80
-6.365030,-39.411940,2025-01-07 16:11:00,NOAA-20,CEARÁ,IGUATU,Caatinga,9,7.08,0.900,37.90
-4.053110,-38.708930,2025-01-07 16:11:00,NOAA-20,CEARÁ,MARANGUAPE,Caatinga,13,0.00,0.900,3.90
-3.164000,-40.389840,2025-01-07 16:11:00,NOAA-20,CEARÁ,MARCO,Caatinga,2,6.49,0.150,2.60
-10.178520,-36.425190,2025-01-07 16:09:00,NOAA-20,ALAGOAS,PENEDO,Mata Atlântica,,0.00,1.000,12.20
-26.637340,-51.173010,2025-01-07 16:05:00,NOAA-20,SANTA CATARINA,CALMON,Mata Atlântica,4,0.08,0.180,7.00
-3.930350,-42.167440,2025-01-07 16:11:00,NOAA-20,PIAUÍ,BATALHA,Caatinga,1,4.74,0.420,3.40
-19.441290,-49.334130,2025-01-07 16:07:00,NOAA-20,MINAS GERAIS,CAMPINA VERDE,Cerrado,0,0.00,0.010,8.50
-11.127670,-39.419640,2025-01-07 16:09:00,NOAA-20,BAHIA,SANTALUZ,Caatinga,31,0.00,1.000,4.00
-11.069070,-39.237380,2025-01-07 16:09:00,NOAA-20,BAHIA,ARACI,Caatinga,19,0.00,1.000,4.00
-4.595020,-39.092430,2025-01-07 16:11:00,NOAA-20,CEARÁ,ITAPIÚNA,Caatinga,11,0.00,1.000,8.50
-6.563520,-39.803990,2025-01-07 16:11:00,NOAA-20,CEARÁ,SABOEIRO,Caatinga,7,30.31,0.000,3.00
-8.352100,-39.295000,2025-01-07 16:09:00,NOAA-20,PERNAMBUCO,CABROBÓ,Caatinga,11,1.51,0.990,9.00
-5.665180,-35.648290,2025-01-07 16:11:00,NOAA-20,RIO GRANDE DO NORTE,POÇO BRANCO,Caatinga,10,0.81,1.000,3.20
-1.953340,-47.909590,2025-01-07 16:11:00,NOAA-20,PARÁ,CONCÓRDIA DO PARÁ,Amazônia,0,9.61,0.000,3.00
-10.083650,-38.512810,2025-01-07 16:09:00,NOAA-20,BAHIA,JEREMOABO,Caatinga,0,0.00,1.000,18.70
-5.925290,-35.625850,2025-01-07 16:11:00,NOAA-20,RIO GRANDE DO NORTE,SÃO PEDRO,Caatinga,15,0.00,1.000,15.40
-4.456970,-39.783050,2025-01-07 16:11:00,NOAA-20,CEARÁ,SANTA QUITÉRIA,Caatinga,0,0.10,0.990,5.50
-9.807570,-37.527720,2025-01-07 16:09:00,NOAA-20,SERGIPE,POÇO REDONDO,Caatinga,21,0.00,1.000,5.20
-5.442760,-38.592160,2025-01-07 16:11:00,NOAA-20,CEARÁ,JAGUARETAMA,Caatinga,1,0.34,1.000,3.40
-10.042170,-37.295590,2025-01-07 16:09:00,NOAA-20,SERGIPE,GARARU,Caatinga,0,0.00,1.000,16.00
-8.782740,-37.077740,2025-01-07 16:09:00,NOAA-20,PERNAMBUCO,BUÍQUE,Caatinga,10,0.00,1.000,12.10
-6.023870,-36.427110,2025-01-07 16:11:00,NOAA-20,RIO GRANDE DO NORTE,CERRO CORÁ,Caatinga,14,0.41,1.000,11.80
-20.648030,-49.304680,2025-01-07 16:07:00,NOAA-20,SÃO PAULO,ONDA VERDE,Cerrado,0,0.00,0.090,8.60
-8.679250,-39.585800,2025-01-07 16:09:00,NOAA-20,BAHIA,CURAÇÁ,Caatinga,0,0.00,1.000,9.40
-23.790270,-48.860960,2025-01-07 16:05:00,NOAA-20,SÃO PAULO,ITAPEVA,Cerrado,1,1.95,0.030,12.40
-4.391800,-39.930620,2025-01-07 16:11:00,NOAA-20,CEARÁ,SANTA QUITÉRIA,Caatinga,1,0.20,1.000,5.60
-3.629990,-42.306720,2025-01-07 17:04:00,NOAA-21,PIAUÍ,LUZILÂNDIA,Caatinga,1,11.19,0.010,13.30
-1.546960,-53.803430,2025-01-07 17:06:00,NOAA-21,PARÁ,PRAINHA,Amazônia,2,1.58,0.000,3.10
-21.442250,-49.440970,2025-01-07 17:00:00,NOAA-21,SÃO PAULO,NOVO HORIZONTE,Mata Atlântica,2,3.41,0.200,10.00
3.742170,-60.209590,2025-01-07 17:09:00,NOAA-21,RORAIMA,NORMANDIA,Amazônia,3,0.00,1.000,3.70
-20.645560,-49.310430,2025-01-07 17:00:00,NOAA-21,SÃO PAULO,ONDA VERDE,Cerrado,0,0.00,0.130,4.10
-10.216160,-39.303390,2025-01-07 17:02:00,NOAA-21,BAHIA,MONTE SANTO,Caatinga,3,0.00,1.000,7.30
-19.632790,-55.360010,2025-01-07 17:26:00,NPP-375,MATO GROSSO DO SUL,AQUIDAUANA,Pantanal,2,0.10,1.000,5.60
-20.768840,-55.519890,2025-01-07 17:26:00,NPP-375,MATO GROSSO DO SUL,ANASTÁCIO,Cerrado,3,0.00,0.750,6.20
4.450260,-60.069190,2025-01-07 17:32:00,NPP-375,RORAIMA,UIRAMUTÃ,Amazônia,1,0.00,0.520,14.70
-29.456500,-50.513450,2025-01-07 17:21:00,NPP-375,RIO GRANDE DO SUL,SÃO FRANCISCO DE PAULA,Mata Atlântica,5,0.00,0.410,11.00
-30.297140,-54.721600,2025-01-07 17:21:00,NPP-375,RIO GRANDE DO SUL,SÃO GABRIEL,Pampa,10,0.00,1.000,12.80
4.222620,-61.046470,2025-01-07 17:32:00,NPP-375,RORAIMA,PACARAIMA,Amazônia,2,0.00,0.780,2.40
-26.183220,-51.272480,2025-01-07 17:24:00,NPP-375,PARANÁ,PORTO VITÓRIA,Mata Atlântica,5,0.23,0.180,3.80
-7.670500,-61.614930,2025-01-07 17:30:00,NPP-375,AMAZONAS,MANICORÉ,Amazônia,2,1.53,0.000,4.90
-20.325670,-55.091890,2025-01-07 17:26:00,NPP-375,MATO GROSSO DO SUL,TERENOS,Cerrado,3,0.00,1.000,3.20
-24.082070,-51.021790,2025-01-07 17:24:00,NPP-375,PARANÁ,ORTIGUEIRA,Mata Atlântica,6,0.00,0.100,23.50
-24.726900,-48.863880,2025-01-07 17:24:00,NPP-375,PARANÁ,ADRIANÓPOLIS,Mata Atlântica,2,0.20,0.030,4.90
-19.982130,-53.187630,2025-01-07 17:47:00,NOAA-20,MATO GROSSO DO SUL,ÁGUA CLARA,Cerrado,3,0.00,0.790,5.00
-27.095320,-52.197460,2025-01-07 17:45:00,NOAA-20,SANTA CATARINA,ARABUTÃ,Mata Atlântica,5,0.20,0.180,311.10
-30.157710,-53.546930,2025-01-07 17:45:00,NOAA-20,RIO GRANDE DO SUL,SÃO SEPÉ,Pampa,16,0.00,0.910,3.90
-28.147550,-55.459810,2025-01-07 17:45:00,NOAA-20,RIO GRANDE DO SUL,GARRUCHOS,Pampa,19,0.00,0.600,4.60
4.216700,-61.042410,2025-01-07 17:56:00,NOAA-20,RORAIMA,PACARAIMA,Amazônia,2,0.00,0.800,15.40
-26.183720,-51.273900,2025-01-07 17:45:00,NOAA-20,PARANÁ,PORTO VITÓRIA,Mata Atlântica,5,0.24,0.180,4.40
-23.426120,-55.373650,2025-01-07 17:47:00,NOAA-20,MATO GROSSO DO SUL,CORONEL SAPUCAIA,Mata Atlântica,6,0.00,1.000,9.50
4.173210,-59.911640,2025-01-07 17:56:00,NOAA-20,RORAIMA,NORMANDIA,Amazônia,2,0.00,0.480,3.60
-12.356700,-52.471802,2025-01-07 00:15:00,METOP-B,MATO GROSSO,QUERÊNCIA,Amazônia,0,2.76,0.010,
-12.374800,-52.471298,2025-01-07 01:11:00,METOP-C,MATO GROSSO,QUERÊNCIA,Amazônia,0,3.03,0.010,
-12.365100,-52.473598,2025-01-07 01:11:00,METOP-C,MATO GROSSO,QUERÊNCIA,Amazônia,0,2.92,0.010,
-2.020000,-52.069000,2025-01-08 00:51:00,METOP-C,PARÁ,PORTO DE MOZ,Amazônia,0,11.83,0.000,
-6.646910,-34.988660,2025-01-08 02:51:00,NPP-375D,PARAÍBA,BAÍA DA TRAIÇÃO,Mata Atlântica,,0.00,1.000,2.80
3.582380,-60.862460,2025-01-08 04:55:00,NOAA-20,RORAIMA,AMAJARI,Amazônia,3,0.00,1.000,1.50
-20.956570,-49.749060,2025-01-08 04:59:00,NOAA-20,SÃO PAULO,JOSÉ BONIFÁCIO,Mata Atlântica,4,0.00,0.530,1.60
-20.121020,-50.420400,2025-01-08 04:59:00,NOAA-20,SÃO PAULO,TURMALINA,Mata Atlântica,2,0.00,0.140,1.20
-0.968110,-53.099160,2025-01-08 04:53:00,NOAA-20,PARÁ,ALMEIRIM,Amazônia,0,16.13,0.010,0.50
-2.531040,-53.958690,2025-01-08 04:55:00,NOAA-20,PARÁ,PRAINHA,Amazônia,0,5.94,0.010,0.60
2.988040,-61.189310,2025-01-08 04:53:00,NOAA-20,RORAIMA,ALTO ALEGRE,Amazônia,2,0.00,1.000,1.40
-23.791710,-50.277160,2025-01-08 04:14:00,NOAA-21,PARANÁ,IBAITI,Mata Atlântica,4,0.57,0.660,1.40
-23.799280,-50.278920,2025-01-08 04:14:00,NOAA-21,PARANÁ,IBAITI,Mata Atlântica,4,0.60,0.800,16.70
-8.071550,-35.125910,2025-01-08 04:08:00,NOAA-21,PERNAMBUCO,SÃO LOURENÇO DA MATA,Mata Atlântica,9,0.00,0.890,1.00
-3.556150,-38.848560,2025-01-08 04:08:00,NOAA-21,CEARÁ,SÃO GONÇALO DO AMARANTE,Caatinga,2,0.10,0.860,2.60
-24.081340,-51.015380,2025-01-08 04:14:00,NOAA-21,PARANÁ,ORTIGUEIRA,Mata Atlântica,7,0.20,0.360,3.40
-8.899270,-35.348190,2025-01-08 04:08:00,NOAA-21,ALAGOAS,MARAGOGI,Mata Atlântica,11,0.00,1.000,1.10
-20.654680,-49.307620,2025-01-08 04:12:00,NOAA-21,SÃO PAULO,ONDA VERDE,Cerrado,0,4.48,0.060,1.90
-19.946750,-44.716460,2025-01-08 04:12:00,NOAA-21,MINAS GERAIS,IGARATINGA,Cerrado,0,0.30,0.000,0.80
-1.012870,-47.788650,2025-01-08 04:31:00,NPP-375D,PARÁ,TERRA ALTA,Amazônia,0,6.22,0.000,2.30
-24.690320,-50.317510,2025-01-08 04:38:00,NPP-375D,PARANÁ,TIBAGI,Mata Atlântica,5,1.72,0.450,3.50
4.401830,-60.252670,2025-01-08 05:46:00,NOAA-21,RORAIMA,UIRAMUTÃ,Amazônia,3,0.00,1.000,2.30
3.456570,-60.213080,2025-01-08 06:12:00,NPP-375D,RORAIMA,NORMANDIA,Amazônia,3,0.00,1.000,1.20
4.347500,-60.880580,2025-01-08 13:31:00,TERRA_M-T,RORAIMA,PACARAIMA,Amazônia,3,0.00,0.910,6.60
0.838910,-60.593990,2025-01-08 13:33:00,TERRA_M-T,RORAIMA,RORAINÓPOLIS,Amazônia,3,0.00,0.290,5.30
3.387840,-60.556270,2025-01-08 13:33:00,TERRA_M-T,RORAIMA,BOA VISTA,Amazônia,3,0.00,1.000,35.50
-20.497380,-53.787700,2025-01-08 13:40:00,TERRA_M-T,MATO GROSSO DO SUL,RIBAS DO RIO PARDO,Cerrado,2,0.00,1.000,72.90
3.768600,-60.296900,2025-01-08 15:40:00,GOES-16,RORAIMA,NORMANDIA,Amazônia,3,0.00,1.000,65.70
-7.267880,-38.611690,2025-01-08 16:34:00,AQUA_M-T,CEARÁ,MAURITI,Caatinga,0,0.00,0.140,49.40
-10.155190,-36.278190,2025-01-08 15:28:00,NPP-375,ALAGOAS,CORURIPE,Mata Atlântica,,0.00,1.000,61.20
